ID,name,url,latitude,longitude,cameraid,last_width,last_height,rating,inuse
37,Baltimore Maryland,http://www.hazecam.net/images/main/baltimore_right.jpg?,39.2903848,-76.6121893,3020,500,250,1,0
38,Blue Hill Observatory Massachusetts,http://www.hazecam.net/images/main/bluehill_right.jpg?,42.211991,-71.114185,3021,500,250,0,0
39,Cape Cod Bay,http://summerhome.com/baycam/image.jpg?,0.0,0.0,3022,704,480,0,0
40,Frostburg Maryland,http://www.hazecam.net/images/main/frostburg.jpg?,0.0,0.0,3023,500,300,1,0
41,Seney Wildlife Refuge MI,http://www.mwhazecam.net/images/photos-main/seney.jpg?,46.289544,-85.947588,3024,640,480,1,0
42,University of Maine at Presque Isle,http://www.micmacweather.com/netcam/large/thumb.php?src=netcam.jpg&amp,0.0,46.6694136,3025,328,1023,0,0
43,I-5 at Pine Street,http://images.wsdot.wa.gov/nw/005vc18997.jpg,47.61249932,-122.3295879,3026,335,249,0,0
44,W Lk Samm Pkwy,http://images.wsdot.wa.gov/nw/520vc01169.jpg,47.667073,-122.129625,3027,335,249,0,0
45,SR 900,http://images.wsdot.wa.gov/nw/090vc01581.jpg,47.548543,-122.061513,3028,335,249,0,0
46,E Lk Samm Pkwy,http://images.wsdot.wa.gov/nw/202vc00817.jpg,47.6661,-122.100093,3029,335,249,0,0
47,Sahalee Way,http://images.wsdot.wa.gov/nw/202vc01027.jpg,47.656524,-122.062826,3030,335,249,0,0
48,124th Ave NE,http://images.wsdot.wa.gov/nw/520vc00760.jpg,47.630691,-122.175253,3031,335,249,0,0
49,NE 51st St,http://images.wsdot.wa.gov/nw/520vc01074.jpg,47.654349,-122.138203,3032,335,249,0,0
50,SR 520: West Lake Sammamish Parkway,http://images.wsdot.wa.gov/nw/520vc01169.jpg,47.667212,-122.126897,3033,335,249,0,0
51,augistine-webcam Est,http://www.avo.alaska.edu/webcam/augtst.jpg,59.357608,-153.344765,3034,1296,960,0,0
52,augustine-webcam Lagoon,http://www.avo.alaska.edu/webcam/aug_lagoon.jpg,59.376239,-153.547668,3035,320,240,0,0
53,Carlisle Volcano Alaska Volcano Observatory: Cleveland Cam,http://www.cfht.hawaii.edu/webcams/gemdome/gemdome.jpg,52.9,-170.1,3036,704,494,1,0
54,Craters of the Moon Tom Cat Summit Highway Cam 1,http://birice.vaisala.com/photos/02F75DC9_061CC258_cam1.jpg,43.4,-113.5,3037,640,480,1,0
55,augustine-webcam Homer,http://www.avo.alaska.edu/webcam/augustine.jpg,59.651092,-151.534424,3038,1280,960,1,0
56,Mount Hood KGW-TV Timberline SkyCam,http://w3.gorge.net/niknas/webcam.jpg,45.4,-121.7,3039,1280,720,1,0
57,peulik Et Chiginagak-webcam Du Mont Whale,http://www.avo.alaska.edu/webcam/peulik.jpg,58.045911,-156.346607,3040,640,480,0,0
58,Trout Lake,http://www.petries.net/troutlake/camera0.jpg,45.998,-121.531,3041,1024,768,0,0
59,Mount Spurr Alaska Volcano Observatory: Mount Spurr CKT Cam,http://www.avo.alaska.edu/webcam/a-spurr.jpg,61.3,-152.3,3042,512,384,1,0
60,shishaldin-webcam Avo,http://www.avo.alaska.edu/webcam/shishaldin.jpg,54.709152,-163.703842,3043,1024,768,1,0
61,redoubt-webcam Dfr,http://www.avo.alaska.edu/webcam/redoubt-3.jpg,60.520806,-152.641296,3044,640,480,0,0
62,Asozan Volcano Aso Webcam,http://www.uty.co.jp/live/snap.jpg,35.4915542267193,138.603000951303,3045,640,480,0,0
63,Fujisan Mt Fuji from Gotemba,http://www.pref.shizuoka.jp/~live/shimizu/m.jpg,35.4,138.7,3046,320,240,0,0
64,Hamilton KTVQ,http://montint.cordillera.tv/Missoula/Cameras/Hamilton.jpg,46.248353,-114.159722,3047,640,480,1,0
65,Addo Elephant National Park,http://gardenia.sanparks.org/webcams/addo.jpg,-33.45,25.73,3048,384,308,0,0
66,Swakopmund Beach Webcam updates every 5 minutes - View SouthWest,http://weather.namsearch.com/swkmolecam.jpg,-23.08,14.81,3049,1280,720,1,0
67,Windhoek Webcam updates every 5 minutes - View NorthEast,http://weather.namsearch.com/windhoekwebcam.jpg,-22.5739716,17.0785144,3050,640,480,0,0
68,Hakusembe River Lodge Webcam automatically updates every 5 minutes - View North-West over Okavango river,http://weather.namsearch.com/hakusembe/Hakusembe.jpg,-17.859,19.677,3051,1920,1080,1,0
69,Craiova Centru,http://82.77.65.43:8207/record/current.jpg,44.3179220934463,23.7948162178993,3052,640,480,0,0
70,"The Beach of Maspalomas, Gran Canaria",http://www.playademaspalomas.com/meteo/playa.jpg,27.738,-15.581,3053,800,600,0,0
71,Grands Montets Logan webcam Argentiere (Chamonix),http://www.compagniedumontblanc.fr/webcam/Grandsmontets.jpg,0.0,0.0,3054,640,480,1,0
72,Mer de Glace webcam Chamonix,http://www.compagniedumontblanc.fr/webcam/CMM1MERDEGLACE.jpg,34.0,-95.0,3055,1280,480,1,0
73,Place Balmat webcam Chamonix (centre),http://static1.chamonet.com/image_uploader/webcam/large/chamonix-town-centre.jpg,0.0,0.0,3056,2592,1443,1,0
74,Vallée Blanche Arete (Aiguille du Midi) Chamonix,http://www.compagniedumontblanc.fr/webcam/tam_arrete.jpg,45.8336421,6.86459390000005,3057,640,480,0,0
75,7 km - Downstream of Badger,http://www.env.gov.nl.ca/wrmd/ADRS/v6/webcam/Badger2_Webcam.jpg,0.0,0.0,3058,640,504,0,0
76,Most recent conditions in Badger,http://www.env.gov.nl.ca/wrmd/ADRS/v6/webcam/Badger_Webcam.jpg,0.0,0.0,3059,640,504,1,0
77,Beaver Cove,http://www.beavercovecamps.com/weather/images/weathercam/weathercam.jpg,45.55925643,-69.46105957,3060,640,360,0,0
78,Brookfield,http://170.222.32.148/rwisimages/Image-707007-707007-0-1.jpg,44.023611,-72.6,3061,704,480,1,0
79,Burlington Skyline,http://tv3.wcax.com/n/wcaxsnap.jpg,44.47698741,-73.21252584,3062,420,240,1,0
80,Corner Brook,http://www.roads.gov.nl.ca/cameras/sites/cornerbrook/current.jpg,48.950824,-57.949563,3063,320,240,0,0
81,Dublin Cam,http://s3.amazonaws.com/almanac/webcam/image.jpg,42.90463946,-72.0907402,3064,738,554,1,0
82,Ely,http://images.webcams.travel/webcam/1268871050.jpg,47.903237,-91.867087,3065,400,224,1,0
83,Foliage Cam,http://klima.sr.unh.edu/data/latest/proctor.jpg,44.5265884,-72.94505596,3066,1296,976,0,0
84,Foxboro,http://wwc.instacam.com/instacamimg/FXBRG/FXBRG_l.jpg?rnd=15-112020112002,42.065381,-71.247825,3067,1280,720,1,0
85,Franconia,http://www.koolkinetics.com/franconia/images/ispy1.jpg,44.2270075,-71.7478646,3068,1280,720,1,0
86,Glenwood,http://www.gnb.ca/0113/cameras/cam-images/RNBGW.jpg,46.981782,-65.370811,3069,320,240,1,0
87,Holiday Valley,http://www.snowgrabber.com/grabber/holiday-valley-base.jpg,42.27324426,-78.67172241,3070,640,480,0,0
88,Lake Winnipesaukee Cam - Bear Cam 3,http://www.bearcam1.com/bearcam3.jpg,43.64737973,-71.40795708,3071,704,480,1,0
89,Liberty Mountain,http://www.libertymountainresort.com/cams/TLC.jpg,39.73465017,-77.46185303,3072,640,480,0,0
90,Liberty Mountain,http://www.libertymountainresort.com/cams/TLC1.jpg,39.73042573,-77.44400024,3073,640,480,1,0
91,McCauley summit,http://www.oldforge.net/mcwebcamtop.jpg,43.69145966,-74.96134758,3074,640,480,1,0
92,Newport,http://icons.wunderground.com/webcamramdisk/d/m/Dmaroot/1/current.jpg,44.936436,-72.205102,3075,320,240,0,0
93,NMU,http://www.acs.nmu.edu/campics/academic.jpg,46.543544,-87.395417,3076,640,480,1,0
94,Plattekill,http://www.plattekill.com/webcam/image1.jpg,42.285691,-74.5690155,3077,1920,1080,0,0
95,Port Rexton,http://www.roads.gov.nl.ca/cameras/sites/portrexton_amec/current.jpg,48.38909,-53.344116,3078,320,240,0,0
96,Portland,http://www.autoeurope.com/noapp/hcam.cfm,43.65197549,-70.26031494,3079,704,480,0,0
97,Rochester,http://www.frontiernet.net/~domonroe/picture.jpg?1228793789578,43.14458519,-77.5904274,3080,640,480,0,0
98,St Donat,http://www.pierreforget.com/video01.jpg,46.319515,-74.220387,3081,640,480,1,0
99,Stratton Mountain,http://images.webcams.travel/webcam/1225049276.jpg,43.0613889,-72.9041667,3082,400,224,0,0
100,View of the Adirondacks,http://www.orda.org/arena1.jpg,44.27372147,-73.98159027,3083,320,240,0,0
101,Wachusett,http://www.instacam.com/instacamimg/PRNWM/PRNWM_s.jpg,42.44930143,-71.8787384,3084,640,360,0,0
102,Westford Weather,http://www.westfordweather.net/cam/webcam.jpg,44.61002348,-73.00827026,3085,1600,1200,1,0
103,Tetons from Driggs Idaho,http://www.tetoncam.com/tetonl.jpg,0.0,0.0,3086,640,480,0,0
104,Jackson Hole Ski Resort - Top of Tram,http://www.jacksonhole.com/webcam/codybowl.jpg,0.0,0.0,3087,1280,720,1,0
105,Jackson Hole Ski Resort - Top of Thunder Chair looking at top of Gondola,http://www.jacksonhole.com/webcam/guncam.jpg,0.0,0.0,3088,1920,1080,1,0
106,Brooks Lake Lodge Web Cam,http://www.brookslake.com/netcam.jpg,43.7473346,-110.0077166,3089,1024,768,1,0
107,Hunky's Technical Services Webcam,http://www.hunkydory.cc/weather/Image.jpg,42.7438412,-110.9335853,3090,640,480,1,0
108,DayWeather WeatherCam - Keystone Wyoming USA - 6192 feet,http://dayweather.com/keystone/ispy.jpg,0.0,0.0,3091,640,480,1,0
109,University of Wyoming PastureCam,http://www.uwagec.org/pasturecam/camera1.jpg,41.3091948,-105.610542,3092,2592,1944,1,0
110,DayWeather Web Cam,http://dayweather.com/ispy.jpg,41.1530026,-104.8180888,3093,640,480,0,0
111,Eternal Sunset,http://www.roads.gov.nl.ca/cameras/sites/lanseauloup/current.jpg,0.0,0.0,3094,352,240,0,0
112,Eternal Sunset,http://www.kornberg.de/webcams/kb01/kb01.jpg,0.0,0.0,3095,640,480,0,0
113,Eternal Sunset,http://www.met.fu-berlin.de/wetter/webcam/Wannsee_prod.jpg,52.4833,13.35,3096,704,576,0,0
114,Eternal Sunset,http://www.avendano.org/cam.jpg,40.4,-3.01667,3097,1920,1080,0,0
115,Eternal Sunset,http://www.hotelcalabona.it/webcam/alghero.jpg,40.55,8.31667,3098,640,480,1,0
116,Eternal Sunset,http://webcam.usask.ca/cgi-bin/getcam.cgi?camera=axiscam2,52.1167,-106.633,3099,640,480,1,0
117,Lighthouse and Dock Webcams,http://www.tawasbayweather.com/images/webcam1.jpg,44.2799888,-83.4782752,3100,640,480,1,0
118,Eternal Sunset,http://www.mairie-cosnesurloire.fr/photo.jpg,47.4,2.91667,3101,352,288,0,0
119,Eternal Sunset,http://www.wallacecompany.com/E45/webcam2.jpg,37.8667,-120.167,3102,448,296,0,0
120,Eternal Sunset,http://boulderflatironcam.com/bfc/bfc.jpg,39.59,-105.08,3103,1024,576,1,0
121,Big Creek Marina,http://mesonet.agron.iastate.edu/data/camera/640x480/KCCI-034.jpg,0.0,0.0,3104,640,480,1,0
122,CDR - Mount Mercy,http://mesonet.agron.iastate.edu/data/camera/640x480/KCRG-001.jpg,42.0021111,-91.6510391,3105,640,480,0,0
123,Cedar Falls/UNI,http://mesonet.agron.iastate.edu/data/camera/640x480/KCRG-012.jpg,42.5237670666,-92.4391362904,3106,640,480,1,0
124,Coralville,http://mesonet.agron.iastate.edu/data/camera/640x480/KCRG-018.jpg,41.6822756,-91.5960643,3107,640,480,0,0
125,Decorah,http://mesonet.agron.iastate.edu/data/camera/640x480/KCRG-013.jpg,43.3033056,-91.7857092,3108,640,480,0,0
126,Dubuque,http://mesonet.agron.iastate.edu/data/camera/640x480/KCRG-005.jpg,42.5005583,-90.6645718,3109,640,480,1,0
127,Fayette,http://mesonet.agron.iastate.edu/data/camera/640x480/KCRG-016.jpg,42.8419255,-91.8021071,3110,640,480,0,0
128,Huron,http://mesonet.agron.iastate.edu/data/camera/640x480/KELO-003.jpg,41.036702,-91.0340335,3111,640,480,1,0
129,Independence,http://mesonet.agron.iastate.edu/data/camera/640x480/KCRG-007.jpg,42.4685978,-91.8893386,3112,640,480,0,0
130,Iowa City,http://mesonet.agron.iastate.edu/data/camera/640x480/KCRG-006.jpg,41.6611277,-91.5301683,3113,640,480,1,0
131,ISU Ag Farm,http://mesonet.agron.iastate.edu/data/camera/640x480/KCCI-027.jpg,0.0,0.0,3114,640,480,1,0
132,ISU Ames,http://mesonet.agron.iastate.edu/data/camera/640x480/KCCI-016.jpg,42.0278131288,-93.6443330901,3115,640,480,1,0
133,Lamoni,http://mesonet.agron.iastate.edu/data/camera/640x480/KCCI-028.jpg,40.622777,-93.9341158,3116,640,480,0,0
134,Mitchell,http://mesonet.agron.iastate.edu/data/camera/640x480/KELO-002.jpg,43.3211111,-92.8702778,3117,640,480,1,0
135,Monticello,http://mesonet.agron.iastate.edu/data/camera/640x480/KCRG-002.jpg,42.2383351,-91.1870937,3118,640,480,1,0
136,Parkersburg,http://mesonet.agron.iastate.edu/data/camera/640x480/KCRG-011.jpg,42.5744444,-92.7866667,3119,640,480,0,0
137,Pella,http://mesonet.agron.iastate.edu/data/camera/640x480/KCCI-006.jpg,0.0,0.0,3120,640,480,1,0
138,Rathbun Lake,http://mesonet.agron.iastate.edu/data/camera/640x480/KCCI-015.jpg,40.8644399,-92.9925577,3121,640,480,0,0
139,Sigourney,http://mesonet.agron.iastate.edu/data/camera/640x480/KCRG-008.jpg,41.3333445,-92.2046255,3122,640,480,0,0
140,Stuart,http://mesonet.agron.iastate.edu/data/camera/640x480/KCCI-033.jpg,0.0,0.0,3123,640,480,1,0
141,Tipton,http://mesonet.agron.iastate.edu/data/camera/640x480/KCRG-010.jpg,41.7697434,-91.1279349,3124,640,480,0,0
142,Vinton,http://mesonet.agron.iastate.edu/data/camera/640x480/KCRG-004.jpg,42.1646477,-92.0185651,3125,640,480,0,0
143,Washington,http://mesonet.agron.iastate.edu/data/camera/640x480/KCRG-003.jpg,41.3014077,-91.6916417,3126,640,480,1,0
144,Winterset,http://mesonet.agron.iastate.edu/data/camera/640x480/KCCI-013.jpg,41.3308237,-94.0138393,3127,640,480,0,0
145,Etosha Safari Lodge Webcam updates every 5 minutes - View North,http://weather.namsearch.com/etosha.jpg,42.9259941468188,-74.9609375,3128,640,480,1,0
146,Martigny: Vue sur le Catogne,http://images.webcams.travel/original/1177877762.jpg,0.0,0.0,3129,400,224,1,0
147,Cannon Beach,http://www.instacam.com/instacamimg/CNHNB/CNHNB_l.jpg,45.8763887424,-123.962342792,3130,1280,720,1,0
148,OSU Coastal Imaging Lab Site at Agate Beach,http://cil-www.oce.orst.edu/yhead/latest.c0.snap.jpg,44.6767435,-124.0793923,3131,1280,960,0,0
149,Westport WA,http://www.rainbowsendcam.com/images/rainbowsendcam.jpg,46.8900903,-124.1040613,3132,640,480,0,0
150,La Push WA,http://webcam.forkswa.com/webcam1/netcam.jpg,47.9054293249047,-124.635740484131,3133,800,600,1,0
151,OSU Webcams - Memorial Union,http://webcam.oregonstate.edu/cam/mu/live/live.jpg?1339168014228,44.5640033,-123.2747343,3134,1024,768,1,0
152,H.J. Andrews Experimental Forest,http://webcam.oregonstate.edu/cam/andrews/live/live.jpg?1485658980,0.0,0.0,3135,640,480,0,0
153,Multi-Animal Teaching Facility,http://webcam.oregonstate.edu/cam/animal/live/live.jpg?673580679,0.0,0.0,3136,1024,768,1,0
154,Goss Stadium,http://webcam.oregonstate.edu/cam/baseball/live/live.jpg?453315409,0.0,0.0,3137,1280,720,1,0
155,Hatfield Marine Science Center,http://webcam.oregonstate.edu/cam/hmsc/live/live.jpg?940348292,44.6245471,-124.0476393,3138,1280,720,1,0
156,Marys Peak Realtime Observatory,http://webcam.oregonstate.edu/cam/maryspeak/live/live.jpg?1755217686,44.5584126189,-123.278121948,3139,1020,756,1,0
157,Yosemity Falls,http://pixelcaster.com/yosemite/webcams/yosfalls.jpg,37.755,-119.5972222,3140,1280,720,1,0
158,CSU Atmospheric Science Webcam,http://www.atmos.colostate.edu/webcam/images/latest.jpg,40.5882277,-105.1476157,3141,640,480,0,0
159,Webbkamera över Isternäset,http://www.vattenriket.kristianstad.se/arkiv/bilder/ister/ister-l.jpg,56.0293936,14.1566778,3142,640,480,0,0
160,"Laguna Beach, Los Angeles",http://abclocal.go.com/three/kabc/webcam/web3-1.jpg,0.0,0.0,3143,600,338,0,0
161,Kaiserslautern City Hall 2,http://www.kaiserslautern.de/live_tools/webcam/cam1_r_212.jpg,49.4466,7.76745,3144,212,159,0,0
162,Kaiserslautern City Hall 4,http://www.kaiserslautern.de/live_tools/webcam/cam2_r_212.jpg,49.4466,7.76745,3145,212,159,0,0
163,"Zzyzx, CA",http://www.eldesierto.org/Zzyzx.jpg,35.1600387,-116.1064944,3146,1024,576,0,0
164,CABO SAN LUCAS,http://webcamsdemexico.net/cabos1/live.jpg,0.0,0.0,3147,800,600,1,0
165,New Port Richey Weather Cam,http://www.aprsfl.net/cam/images-cam/image.jpg,28.2441768,-82.7192671,3148,672,512,1,0
166,"Bonny Hills, Australia 3",http://www.bonnyhillsbeachhouse.com.au/webcam_files/surfcam_980x734.jpg,-31.580181,152.83001,3149,979,551,1,0
167,"Midland, TX 2",http://72.48.229.4/axis-cgi/jpg/image.cgi?resolution=352x240&amp,0.0,0.0,3150,323,352,0,0
168,"Notrees, TX",http://72.48.231.13/axis-cgi/jpg/image.cgi?resolution=704x480,0.0,0.0,3151,704,480,1,0
169,"Barstow, TX",http://72.48.232.148/axis-cgi/jpg/image.cgi?resolution=704x480,0.0,0.0,3152,704,480,1,0
170,"Brookings Hall, Washington University in St. Louis",http://128.252.39.100/SnapshotJPEG?Resolution=1280x960&amp,0.0,0.0,3153,0,328,0,0
171,"Oak Allée, Washington University in St. Louis",http://128.252.39.112/SnapshotJPEG?Resolution=1280x960&amp,0.0,0.0,3154,0,328,0,0
172,"DUC, Washington University in St. Louis",http://128.252.39.27/SnapshotJPEG?Resolution=1280x960&amp,0.0,0.0,3155,0,328,1,0
173,"Francis Field, Washington University in St. Louis",http://128.252.163.102/SnapshotJPEG?Resolution=1280x960&amp,0.0,0.0,3156,0,328,1,0
174,"South 40, Washington University in St. Louis",http://128.252.105.1/SnapshotJPEG?Resolution=1280x960&amp,0.0,0.0,3157,0,328,0,0
175,"Yosemite, Half Dome",http://pixelcaster.com/yosemite/webcams/ahwahnee2.jpg,37.7461111,-119.5330555,3158,1296,960,1,0
176,"Yosemite, High Sierra",http://pixelcaster.com/yosemite/webcams/sentinel.jpg,37.7705963,-119.5107708,3159,1024,576,1,0
177,SLOweather.com Cams,http://wx.sloweather.com/images/towncam.jpg,35.2690965,-120.6707693,3160,640,480,1,0
178,I-75/85 AT GRADY CURVE,http://cdn.511ga.org/cameras/GDOT-CAM-010.jpg,33.752,-84.380304,3161,352,240,0,0
179,I-75/85 AT EDGEWOOD,http://cdn.511ga.org/cameras/GDOT-CAM-011.jpg,33.7534,-84.379304,3162,352,240,0,0
180,I-75/85 NB AT COURTLAND ST,http://cdn.511ga.org/cameras/GDOT-CAM-013.jpg,33.766888,-84.38176,3163,352,240,0,0
181,I-75/85 SB AT COURTLAND ST,http://cdn.511ga.org/cameras/GDOT-CAM-014.jpg,33.763184,-84.387856,3164,352,240,0,0
182,I-75/85 NB AT SPRING ST,http://cdn.511ga.org/cameras/GDOT-CAM-015.jpg,33.7682,-84.3892,3165,352,240,0,0
183,I-75/85 SB AT SPRING ST,http://cdn.511ga.org/cameras/GDOT-CAM-016.jpg,33.7672,-84.3892,3166,352,240,0,0
184,I-75/85 N OF NORTH AVE,http://cdn.511ga.org/cameras/GDOT-CAM-017.jpg,33.7744,-84.390704,3167,352,240,0,0
185,I-75/85 S OF 10TH ST,http://cdn.511ga.org/cameras/GDOT-CAM-018.jpg,33.7805,-84.3914,3168,352,240,0,0
186,I-85 N OF FAYETTEVILLE RD,http://cdn.511ga.org/cameras/GDOT-CAM-180.jpg,33.55352,-84.55288,3169,1920,1080,0,0
187,I-85 S OF SR 138,http://cdn.511ga.org/cameras/GDOT-CAM-181.jpg,33.562912,-84.545728,3170,720,480,0,0
188,I-85 AT SR 138,http://cdn.511ga.org/cameras/GDOT-CAM-182.jpg,33.56698,-84.537784,3171,720,480,0,0
189,I-85 N OF SR 138,http://cdn.511ga.org/cameras/GDOT-CAM-183.jpg,33.569136,-84.535824,3172,720,480,0,0
190,I-85 1 MI N OF SR 138,http://cdn.511ga.org/cameras/GDOT-CAM-184.jpg,33.567692,-84.529832,3173,720,480,0,0
191,I-85 N OF FLAT SHOALS RD,http://cdn.511ga.org/cameras/GDOT-CAM-186.jpg,33.579996,-84.523576,3174,720,480,0,0
192,I-85 S OF BUFFINGTON RD,http://cdn.511ga.org/cameras/GDOT-CAM-187.jpg,33.588704,-84.512592,3175,720,480,0,0
193,I-85 N OF BUFFINGTON RD,http://cdn.511ga.org/cameras/GDOT-CAM-188.jpg,33.589496,-84.5002,3176,720,480,0,0
194,I-85 1 MI N OF BUFFNGTN RD,http://cdn.511ga.org/cameras/GDOT-CAM-189.jpg,33.601084,-84.494112,3177,720,480,0,0
195,I-75/85 N OF 10TH ST,http://cdn.511ga.org/cameras/GDOT-CAM-019.jpg,33.7835,-84.3914,3178,352,240,0,0
196,I-85 AT ENTRNCE RAMP FRM I285,http://cdn.511ga.org/cameras/GDOT-CAM-190.jpg,33.606804,-84.48256,3179,720,480,0,0
197,I-85 N OF I-285 SOUTH,http://cdn.511ga.org/cameras/GDOT-CAM-191.jpg,33.618076,-84.488184,3180,720,480,0,0
198,I-85 S OF OLD NATIONAL,http://cdn.511ga.org/cameras/GDOT-CAM-192.jpg,33.622548,-84.4812,3181,720,480,1,0
199,I-85 AT OLD NATIONAL,http://cdn.511ga.org/cameras/GDOT-CAM-193.jpg,33.623424,-84.475376,3182,720,480,0,0
200,I-85 N OF OLD NATIONAL,http://cdn.511ga.org/cameras/GDOT-CAM-194.jpg,33.622912,-84.4658,3183,720,480,0,0
201,I-85 2/3 MI N OF OLD NATL,http://cdn.511ga.org/cameras/GDOT-CAM-195.jpg,33.62284,-84.46352,3184,720,480,0,0
202,I-85 N OF I-285 WEST,http://cdn.511ga.org/cameras/GDOT-CAM-196.jpg,33.617392,-84.461232,3185,720,480,0,0
203,I-85 S OF RIVERDALE RD,http://cdn.511ga.org/cameras/GDOT-CAM-197.jpg,33.625436,-84.454352,3186,720,480,0,0
204,I-85 N OF RIVERDALE RD,http://cdn.511ga.org/cameras/GDOT-CAM-198.jpg,33.63494,-84.45688,3187,720,480,0,0
205,I-85 1/2 MI S OF CAMP CRK,http://cdn.511ga.org/cameras/GDOT-CAM-199.jpg,33.6388,-84.456208,3188,720,480,0,0
206,I-75/85 AT 14TH ST,http://cdn.511ga.org/cameras/GDOT-CAM-020.jpg,33.787116,-84.395416,3189,1920,1080,0,0
207,I-75 AT BROOKWOOD INTRCHGE,http://cdn.511ga.org/cameras/GDOT-CAM-021.jpg,33.7959,-84.392504,3190,352,240,0,0
208,I-85 AT BROOKWOOD INTRCHGE,http://cdn.511ga.org/cameras/GDOT-CAM-022.jpg,33.7958,-84.393896,3191,352,240,0,0
209,I-75 N OF BROOKWOOD INTRCHGE,http://cdn.511ga.org/cameras/GDOT-CAM-023.jpg,33.802272,-84.394032,3192,352,240,0,0
210,I-75 AT NORTHSIDE DR,http://cdn.511ga.org/cameras/GDOT-CAM-024.jpg,33.8022,-84.407304,3193,352,240,0,0
211,I-75 AT COLLIER RD,http://cdn.511ga.org/cameras/GDOT-CAM-025.jpg,33.8085,-84.418096,3194,352,240,0,0
212,I-75 NEAR PEACHTREE BATTLE,http://cdn.511ga.org/cameras/GDOT-CAM-026.jpg,33.824272,-84.4234,3195,720,480,0,0
213,I-75 S OF PEACHTREE BATTLE,http://cdn.511ga.org/cameras/GDOT-CAM-099.jpg,33.820632,-84.422576,3196,720,480,0,0
214,I-75 AT MOORES MILL RD,http://cdn.511ga.org/cameras/GDOT-CAM-027.jpg,33.834524,-84.427472,3197,352,240,0,0
215,I-285 AT BOULDERCREST RD,http://cdn.511ga.org/cameras/GDOT-CAM-271.jpg,33.686052,-84.312192,3198,720,480,0,0
216,I-75 S OF PACES FERRY RD,http://cdn.511ga.org/cameras/GDOT-CAM-028.jpg,33.84692,-84.4264,3199,720,480,0,0
217,I-75 N OF W PACES FERRY RD,http://cdn.511ga.org/cameras/GDOT-CAM-029.jpg,33.855748,-84.42812,3200,720,480,0,0
218,I-75 AT MT PARAN RD,http://cdn.511ga.org/cameras/GDOT-CAM-030.jpg,33.8637,-84.438104,3201,720,480,0,0
219,I-75 S OF CHATT RIVER,http://cdn.511ga.org/cameras/GDOT-CAM-031.jpg,33.8743,-84.446072,3202,352,240,0,0
220,I-75 AT CUMBERLAND BLVD,http://cdn.511ga.org/cameras/GDOT-CAM-032.jpg,33.8808,-84.453496,3203,352,240,0,0
221,I-75 AT AKERS MILL RD,http://cdn.511ga.org/cameras/GDOT-CAM-033.jpg,33.886564,-84.457936,3204,352,240,0,0
222,I-20 at Langhorn St,http://cdn.511ga.org/cameras/GDOT-CAM-339.jpg,33.74594,-84.428544,3205,352,240,0,0
223,I-75 AT WINDY RIDGE,http://cdn.511ga.org/cameras/GDOT-CAM-034.jpg,33.896288,-84.465872,3206,352,240,0,0
224,I-20 at Lawton St,http://cdn.511ga.org/cameras/GDOT-CAM-341.jpg,33.74324,-84.42396,3207,352,240,0,0
225,I-20 at Lowery Blvd,http://cdn.511ga.org/cameras/GDOT-CAM-343.jpg,33.741348,-84.41676,3208,352,240,0,0
226,I-20 at Lee St,http://cdn.511ga.org/cameras/GDOT-CAM-344.jpg,33.741564,-84.412056,3209,352,240,0,0
227,I-20 at McDaniel St,http://cdn.511ga.org/cameras/GDOT-CAM-345.jpg,33.741368,-84.40596,3210,352,240,0,0
228,I-20 at Windsor St,http://cdn.511ga.org/cameras/GDOT-CAM-346.jpg,33.7447,-84.39932,3211,352,240,0,0
229,I-20 EB Exit to 75/85 NB,http://cdn.511ga.org/cameras/GDOT-CAM-348.jpg,33.743928,-84.389744,3212,1280,720,0,0
230,I-85 AT MARTA OVERPASS,http://cdn.511ga.org/cameras/GDOT-CAM-035.jpg,33.8023,-84.3872,3213,352,240,0,0
231,I-85 AT MONROE DR,http://cdn.511ga.org/cameras/GDOT-CAM-036.jpg,33.8089,-84.378096,3214,352,240,0,0
232,I-85 AT GA 400 RAMPS,http://cdn.511ga.org/cameras/GDOT-CAM-037.jpg,33.8171,-84.363096,3215,1280,720,1,0
233,I-85 AT CHESHIRE BRIDGE,http://cdn.511ga.org/cameras/GDOT-CAM-038.jpg,33.8241,-84.352304,3216,352,240,0,0
234,I-85 S OF N DRUID HILLS RD,http://cdn.511ga.org/cameras/GDOT-CAM-039.jpg,33.8282,-84.3444,3217,352,240,0,0
235,I-85 S OF CLAIRMONT RD,http://cdn.511ga.org/cameras/GDOT-CAM-040.jpg,33.8387,-84.3226,3218,352,240,0,0
236,I-85 NEAR CLAIRMONT RD,http://cdn.511ga.org/cameras/GDOT-CAM-041.jpg,33.8419,-84.308896,3219,352,240,0,0
237,I-85 1 MI N OF CLAIRMONT,http://cdn.511ga.org/cameras/GDOT-CAM-042.jpg,33.8515,-84.301496,3220,352,240,0,0
238,I-85 S OF SHALLOWFORD RD,http://cdn.511ga.org/cameras/GDOT-CAM-043.jpg,33.859,-84.2938,3221,352,240,0,0
239,I-85 N OF SHALLOWFORD RD,http://cdn.511ga.org/cameras/GDOT-CAM-044.jpg,33.8722,-84.2792,3222,352,240,0,0
240,I-75 N OF WADE GREEN RD,http://cdn.511ga.org/cameras/GDOT-CAM-442.jpg,34.0443,-84.581904,3223,720,480,0,0
241,I-75 S OF HICKORY GROVE RD,http://cdn.511ga.org/cameras/GDOT-CAM-443.jpg,34.060112,-84.60912,3224,720,480,0,0
242,I-75 SB N OF HICKORY GROVE RD,http://cdn.511ga.org/cameras/GDOT-CAM-445.jpg,34.069808,-84.614584,3225,720,480,0,0
243,I-75 NB S OF WOODSTOCK RD,http://cdn.511ga.org/cameras/GDOT-CAM-447.jpg,34.076708,-84.621376,3226,720,480,0,0
244,I-75 NB N OF WOODSTOCK RD,http://cdn.511ga.org/cameras/GDOT-CAM-448.jpg,34.081564,-84.628488,3227,720,480,0,0
245,I-75 SB N OF WOODSTOCK RD,http://cdn.511ga.org/cameras/GDOT-CAM-449.jpg,34.078516,-84.632384,3228,720,480,0,0
246,I-85 AT CHAMBLEE-TUCKER,http://cdn.511ga.org/cameras/GDOT-CAM-045.jpg,33.8795,-84.272904,3229,352,240,0,0
247,I-75 S OF PRIEST RD,http://cdn.511ga.org/cameras/GDOT-CAM-451.jpg,34.079936,-84.640008,3230,720,480,0,0
248,I-85 S OF I-285 (MORELAND INTRCHGE),http://cdn.511ga.org/cameras/GDOT-CAM-046.jpg,33.8874,-84.2666,3231,352,240,0,0
249,I-75 N OF CUMBERLAND BLVD,http://cdn.511ga.org/cameras/GDOT-CAM-047.jpg,33.882788,-84.455256,3232,352,240,0,0
250,SR166 AT I-285,http://cdn.511ga.org/cameras/GDOT-CAM-048.jpg,33.686472,-84.50112,3233,352,240,1,0
251,SR166 AT GREENBRIAR PKWY,http://cdn.511ga.org/cameras/GDOT-CAM-049.jpg,33.688188,-84.490176,3234,352,240,0,0
252,SR166 AT MAXELL DR,http://cdn.511ga.org/cameras/GDOT-CAM-050.jpg,33.694428,-84.480304,3235,352,240,0,0
253,SR166 AT DODSON DR,http://cdn.511ga.org/cameras/GDOT-CAM-051.jpg,33.694356,-84.469856,3236,352,240,1,0
254,SR166 E OF DODSON DR,http://cdn.511ga.org/cameras/GDOT-CAM-052.jpg,33.6975,-84.4648,3237,352,240,1,0
255,SR166 AT DELOWE DR,http://cdn.511ga.org/cameras/GDOT-CAM-053.jpg,33.695684,-84.4554,3238,352,240,0,0
256,I-75 AT FOREST PKWY RAMP METER,http://cdn.511ga.org/cameras/GDOT-CAM-062.jpg,33.61964,-84.399032,3239,720,480,0,0
257,I-75 N OF TARA BLVD,http://cdn.511ga.org/cameras/GDOT-CAM-063.jpg,33.58692,-84.382528,3240,352,240,0,0
258,I-75 N OF BOB WHITE TRAIL,http://cdn.511ga.org/cameras/GDOT-CAM-064.jpg,33.595132,-84.388048,3241,352,240,0,0
259,I-285 WEST OF RIVERDALE RD - LOOKS AT CMS 243,http://cdn.511ga.org/cameras/GDOT-CAM-650.jpg,33.61454,-84.447856,3242,352,240,0,0
260,I-285 EAST OF RIVERDALE RD - LOOKS AT CMS 244,http://cdn.511ga.org/cameras/GDOT-CAM-651.jpg,33.615312,-84.434016,3243,352,240,0,0
261,I-285 E AT 5TH RUNWAY TUNNEL - LOOKS AT EB LANE INDICATORS,http://cdn.511ga.org/cameras/GDOT-CAM-652.jpg,33.616264,-84.431576,3244,1920,1080,0,0
262,I-285 W (INNER LOOP) 7TH INSIDE 5TH RUNWAY TUNNEL,http://cdn.511ga.org/cameras/GDOT-CAM-653.jpg,33.623268,-84.435432,3245,352,240,0,0
263,I-285 W (INNER LOOP) 6TH INSIDE 5TH RUNWAY TUNNEL,http://cdn.511ga.org/cameras/GDOT-CAM-655.jpg,33.622736,-84.433104,3246,352,240,0,0
264,I-285 W (INNER LOOP) 5TH INSIDE 5TH RUNWAY TUNNEL,http://cdn.511ga.org/cameras/GDOT-CAM-656.jpg,33.624256,-84.433848,3247,352,240,0,0
265,I-285 W (INNER LOOP) 4TH INSIDE 5TH RUNWAY TUNNEL,http://cdn.511ga.org/cameras/GDOT-CAM-659.jpg,33.623544,-84.431392,3248,352,240,0,0
266,I-285 W (INNER LOOP) 3RD INSIDE 5TH RUNWAY TUNNEL,http://cdn.511ga.org/cameras/GDOT-CAM-661.jpg,33.625164,-84.432224,3249,352,240,0,0
267,I-285 W (INNER LOOP) 2ND INSIDE 5TH RUNWAY TUNNEL,http://cdn.511ga.org/cameras/GDOT-CAM-662.jpg,33.62594,-84.43036,3250,352,240,0,0
268,I-285 W (INNER LOOP) 1ST INSIDE 5TH RUNWAY TUNNEL,http://cdn.511ga.org/cameras/GDOT-CAM-664.jpg,33.624844,-84.42876,3251,352,240,1,0
269,I-285 E (OUTER LOOP) 7TH INSIDE 5TH RUNWAY TUNNEL,http://cdn.511ga.org/cameras/GDOT-CAM-666.jpg,33.620452,-84.42412,3252,352,240,0,0
270,I-285 W AT 5TH RUNWAY TUNNEL - FOR WB LANE INDICATORS,http://cdn.511ga.org/cameras/GDOT-CAM-667.jpg,33.6239852606875,-84.4238584338379,3253,1920,1080,0,0
271,I-285 W OF LOOP RD - LOOKS AT CMS 208,http://cdn.511ga.org/cameras/GDOT-CAM-668.jpg,33.627276,-84.424392,3254,800,450,0,0
272,I-285 LOOP RD - LOOKS AT CMS 207,http://cdn.511ga.org/cameras/GDOT-CAM-669.jpg,33.629544,-84.42024,3255,1920,1080,1,0
273,I-75 NEAR KENNEDY DR,http://cdn.511ga.org/cameras/GDOT-CAM-067.jpg,33.61282,-84.397304,3256,352,240,0,0
274,I-75 AT FOREST PKWY,http://cdn.511ga.org/cameras/GDOT-CAM-068.jpg,33.617388,-84.398088,3257,352,240,0,0
275,I-75 N OF FOREST PKWY,http://cdn.511ga.org/cameras/GDOT-CAM-069.jpg,33.6257,-84.399952,3258,352,240,0,0
276,I-75/85 AT FULTON ST,http://cdn.511ga.org/cameras/GDOT-CAM-007.jpg,33.7437,-84.3916,3259,352,240,0,0
277,I-75 S OF 285 (SOUTH SIDE),http://cdn.511ga.org/cameras/GDOT-CAM-070.jpg,33.62934,-84.400032,3260,352,240,0,0
278,I-85 AT SYLVAN RD,http://cdn.511ga.org/cameras/GDOT-CAM-073.jpg,33.665428,-84.418448,3261,352,240,0,0
279,I-85 N OF VIRGINIA AVE,http://cdn.511ga.org/cameras/GDOT-CAM-074.jpg,33.663992,-84.422056,3262,352,240,0,0
280,I-85 S OF VIRGINIA AVE,http://cdn.511ga.org/cameras/GDOT-CAM-075.jpg,33.66062,-84.42928,3263,352,240,0,0
281,I-85 AT AIRPORT EXIT,http://cdn.511ga.org/cameras/GDOT-CAM-076.jpg,33.6534,-84.438152,3264,352,240,0,0
282,I-85 AT LOOP RD,http://cdn.511ga.org/cameras/GDOT-CAM-077.jpg,33.64898,-84.445744,3265,352,240,0,0
283,US78 AT ORION DR,http://cdn.511ga.org/cameras/GDOT-CAM-775.jpg,33.803732,-84.27688,3266,720,480,0,0
284,US78 AT LAWRENCEVILLE HWY,http://cdn.511ga.org/cameras/GDOT-CAM-776.jpg,33.806808,-84.273856,3267,720,480,0,0
285,US78 AT N DRUID HILLS RD,http://cdn.511ga.org/cameras/GDOT-CAM-777.jpg,33.80976,-84.269664,3268,720,480,0,0
286,US78 AT RAMP TO I-285 N,http://cdn.511ga.org/cameras/GDOT-CAM-779.jpg,33.819564,-84.249168,3269,720,480,0,0
287,I-85 AT CAMP CREEK PKWY,http://cdn.511ga.org/cameras/GDOT-CAM-078.jpg,33.644792,-84.449952,3270,352,240,0,0
288,US78 E OF I-285,http://cdn.511ga.org/cameras/GDOT-CAM-780.jpg,33.817748,-84.24272,3271,720,480,0,0
289,US78 AT BROCKETT RD,http://cdn.511ga.org/cameras/GDOT-CAM-781.jpg,33.82554,-84.233208,3272,720,480,0,0
290,US78 E OF BROCKETT RD,http://cdn.511ga.org/cameras/GDOT-CAM-782.jpg,33.829552,-84.224392,3273,720,480,0,0
291,US78 AT MOUNTAIN INDUST BLVD,http://cdn.511ga.org/cameras/GDOT-CAM-784.jpg,33.83516,-84.20004,3274,720,480,0,0
292,US78 W OF JULIETTE RD,http://cdn.511ga.org/cameras/GDOT-CAM-786.jpg,33.825988,-84.1746,3275,720,480,0,0
293,US78 E OF JULIETTE RD,http://cdn.511ga.org/cameras/GDOT-CAM-787.jpg,33.82576,-84.174376,3276,720,480,0,0
294,US78 E OF STN MTN BYPASS,http://cdn.511ga.org/cameras/GDOT-CAM-789.jpg,33.818656,-84.169976,3277,720,480,0,0
295,US78 E OF HUGH HOWELL RD,http://cdn.511ga.org/cameras/GDOT-CAM-792.jpg,33.8237,-84.143856,3278,720,480,0,0
296,US78 W OF JEFFERSON DAVIS RD,http://cdn.511ga.org/cameras/GDOT-CAM-794.jpg,33.82234,-84.135432,3279,720,480,0,0
297,US78 AT JEFFERSON DAVIS RD,http://cdn.511ga.org/cameras/GDOT-CAM-795.jpg,33.826788,-84.133768,3280,720,480,0,0
298,US78 AT W PARK PL BLVD,http://cdn.511ga.org/cameras/GDOT-CAM-796.jpg,33.82232,-84.120976,3281,720,480,0,0
299,I-75/85 AT CAPITOL AVE,http://cdn.511ga.org/cameras/GDOT-CAM-008.jpg,33.74514,-84.384128,3282,352,240,0,0
300,I-75 N OF CENTRAL AVE,http://cdn.511ga.org/cameras/GDOT-CAM-080.jpg,33.670368,-84.39804,3283,352,240,0,0
301,I-75 AT HENRY FORD/CENTRAL,http://cdn.511ga.org/cameras/GDOT-CAM-081.jpg,33.653192,-84.396344,3284,352,240,0,0
302,I-75 AT CW GRANT PKWY,http://cdn.511ga.org/cameras/GDOT-CAM-082.jpg,33.640732,-84.400112,3285,352,240,0,0
303,I-75 AT I-285 (SOUTH SIDE),http://cdn.511ga.org/cameras/GDOT-CAM-083.jpg,33.632912,-84.401552,3286,352,240,0,0
304,GA400 S OF PITTS RD,http://cdn.511ga.org/cameras/GDOT-CAM-830.jpg,33.9653,-84.350304,3287,352,240,0,0
305,GA400 N OF PITTS RD,http://cdn.511ga.org/cameras/GDOT-CAM-831.jpg,33.9752,-84.345104,3288,352,240,0,0
306,GA400 AT ROBERTS DR,http://cdn.511ga.org/cameras/GDOT-CAM-833.jpg,33.9916,-84.338,3289,352,240,0,0
307,GA400 S OF HOLCOMB BR RD,http://cdn.511ga.org/cameras/GDOT-CAM-836.jpg,34.0183,-84.326496,3290,352,240,0,0
308,GA400 AT HOLCOMB BR RD,http://cdn.511ga.org/cameras/GDOT-CAM-837.jpg,34.0215,-84.324696,3291,352,240,0,0
309,GA400 1/2 MI N OF HOLCOMB,http://cdn.511ga.org/cameras/GDOT-CAM-838.jpg,34.0301,-84.318496,3292,352,240,0,0
310,GA400 AT MANSELL RD,http://cdn.511ga.org/cameras/GDOT-CAM-839.jpg,34.0389,-84.311896,3293,352,240,0,0
311,I-85 S OF PLEASANTDALE RD,http://cdn.511ga.org/cameras/GDOT-CAM-084.jpg,33.8989,-84.2484,3294,352,240,0,0
312,GA400 AT KIMBALL BR RD,http://cdn.511ga.org/cameras/GDOT-CAM-843.jpg,34.06,-84.276296,3295,352,240,0,0
313,GA400 AT OLD MILTON PKWY,http://cdn.511ga.org/cameras/GDOT-CAM-844.jpg,34.06,-84.276296,3296,352,240,0,0
314,I-85 N OF PLEASANTDALE RD,http://cdn.511ga.org/cameras/GDOT-CAM-085.jpg,33.904,-84.240096,3297,352,240,0,0
315,I-85 S OF JIMMY CARTER,http://cdn.511ga.org/cameras/GDOT-CAM-086.jpg,33.9089,-84.229496,3298,352,240,0,0
316,I-85 AT JIMMY CARTER BLVD,http://cdn.511ga.org/cameras/GDOT-CAM-087.jpg,33.9124,-84.208296,3299,352,240,0,0
317,I-75 AT WINDY HILL,http://cdn.511ga.org/cameras/GDOT-CAM-088.jpg,33.9005,-84.4732,3300,352,240,0,0
318,I-75/85 AT MLK JR DR,http://cdn.511ga.org/cameras/GDOT-CAM-009.jpg,33.7484,-84.3858,3301,352,240,0,0
319,I-75 S MOORES MILL ENT,http://cdn.511ga.org/cameras/GDOT-CAM-091.jpg,33.832208,-84.427088,3302,720,480,0,0
320,I-85 ON PEACHTREE ST OVERPASS,http://cdn.511ga.org/cameras/GDOT-CAM-092.jpg,33.8469,-84.431296,3303,720,480,0,0
321,I-85 AT SHALLOWFORD RD,http://cdn.511ga.org/cameras/GDOT-CAM-093.jpg,33.7913,-84.3924,3304,720,480,0,0
322,I-85 1 MI S OF SHALLOWFORD RD,http://cdn.511ga.org/cameras/GDOT-CAM-094.jpg,33.7915,-84.390704,3305,720,480,0,0
323,I-75 S W PACES FRY ENT,http://cdn.511ga.org/cameras/GDOT-CAM-095.jpg,33.846148,-84.434048,3306,720,480,0,0
324,I-75 AT MT PARAN RAMP METER,http://cdn.511ga.org/cameras/GDOT-CAM-096.jpg,33.858616,-84.438336,3307,720,480,0,0
325,I-75/85 AT WILLIAMS ST,http://cdn.511ga.org/cameras/GDOT-CAM-097.jpg,33.7672,-84.3892,3308,1920,1080,1,0
326,I-75/85 AT FAIR DR,http://cdn.511ga.org/cameras/GDOT-CAM-098.jpg,33.72,-84.4,3309,720,480,0,0
327,I-85 S OF LANGFORD PKWY,http://cdn.511ga.org/cameras/GDOT-CAM-001.jpg,33.687628,-84.40128,3310,352,240,0,0
328,I-75/85 S OF LANGFORD PKWY,http://cdn.511ga.org/cameras/GDOT-CAM-002.jpg,33.694068,-84.404632,3311,352,240,0,0
329,I-75/85 AT LANGFORD PKWY,http://cdn.511ga.org/cameras/GDOT-CAM-003.jpg,33.69886,-84.40492,3312,352,240,0,0
330,I-75/85 N OF LANGFORD PKWY,http://cdn.511ga.org/cameras/GDOT-CAM-004.jpg,33.70948,-84.402768,3313,352,240,0,0
331,I-75/85 AT UNIVERSITY AVE,http://cdn.511ga.org/cameras/GDOT-CAM-005.jpg,33.721844,-84.395296,3314,352,240,0,0
332,SR166 AT STANTON RD,http://cdn.511ga.org/cameras/GDOT-CAM-054.jpg,33.694724,-84.447672,3315,352,240,0,0
333,SR166 E OF STANTON RD,http://cdn.511ga.org/cameras/GDOT-CAM-055.jpg,33.696868,-84.441944,3316,352,240,0,0
334,SR166 W OF NEWNAN ST,http://cdn.511ga.org/cameras/GDOT-CAM-056.jpg,33.696948,-84.439664,3317,352,240,1,0
335,I-75/85 AT PRYOR ST,http://cdn.511ga.org/cameras/GDOT-CAM-006.jpg,33.73,-84.393,3318,352,240,0,0
336,SR166 AT US 19,http://cdn.511ga.org/cameras/GDOT-CAM-060.jpg,33.694084,-84.407872,3319,352,240,1,0
337,I-75 AT JC PENNEY,http://cdn.511ga.org/cameras/GDOT-CAM-066.jpg,33.605868,-84.39476,3320,352,240,0,0
338,I-85 AT CLEVELAND AVE,http://cdn.511ga.org/cameras/GDOT-CAM-071.jpg,33.68314,-84.41076,3321,352,240,0,0
339,I-85 N OF SYLVAN RD,http://cdn.511ga.org/cameras/GDOT-CAM-072.jpg,33.6688,-84.415768,3322,352,240,0,0
340,I-75 AT CLEVELAND AVE,http://cdn.511ga.org/cameras/GDOT-CAM-079.jpg,33.681068,-84.398528,3323,352,240,0,0
341,GA400 S OF MAXWELL RD,http://cdn.511ga.org/cameras/GDOT-CAM-840.jpg,34.0464,-84.3044,3324,352,240,0,0
342,GA400 S OF HAYNES BR RD,http://cdn.511ga.org/cameras/GDOT-CAM-841.jpg,34.0516,-84.296096,3325,352,240,0,0
343,I-475 TOBESOFKEE CRK,http://cdn.511ga.org/cameras/BIBB-CAM-010.jpg,32.76469,-83.710224,3326,352,240,1,0
344,I-475 MILE POST 1,http://cdn.511ga.org/cameras/BIBB-CAM-011.jpg,32.771984,-83.711128,3327,352,240,0,0
345,I-475 MILE POST 1.5,http://cdn.511ga.org/cameras/BIBB-CAM-013.jpg,32.779366,-83.714136,3328,352,240,0,0
346,I-475 US 80,http://cdn.511ga.org/cameras/BIBB-CAM-018.jpg,32.807144,-83.72384,3329,352,240,1,0
347,I-475 US 80 EXIT RAMP,http://cdn.511ga.org/cameras/BIBB-CAM-019.jpg,32.81279,-83.72752,3330,352,240,0,0
348,I-475 EISENHOWER PKWY,http://cdn.511ga.org/cameras/BIBB-CAM-020.jpg,32.809734,-83.726288,3331,352,240,0,0
349,I-475 COLUMBUS RD,http://cdn.511ga.org/cameras/BIBB-CAM-021.jpg,32.817932,-83.729488,3332,352,240,1,0
350,I-475 MILE POST 4.5,http://cdn.511ga.org/cameras/BIBB-CAM-022.jpg,32.825696,-83.73132,3333,352,240,0,0
351,I-475 MILE POST 5,http://cdn.511ga.org/cameras/BIBB-CAM-023.jpg,32.828774,-83.731368,3334,352,240,1,0
352,I-475 MILE POST 6,http://cdn.511ga.org/cameras/BIBB-CAM-025.jpg,32.845546,-83.73932,3335,352,240,0,0
353,I-475 MILE POST 7,http://cdn.511ga.org/cameras/BIBB-CAM-026.jpg,32.855332,-83.743168,3336,352,240,0,0
354,I-475 TUCKER RD,http://cdn.511ga.org/cameras/BIBB-CAM-027.jpg,32.859512,-83.746168,3337,352,240,0,0
355,I-475 REST AREA,http://cdn.511ga.org/cameras/BIBB-CAM-028.jpg,32.865142,-83.752416,3338,352,240,0,0
356,I-475 PEAKE RD,http://cdn.511ga.org/cameras/BIBB-CAM-030.jpg,32.870934,-83.75976,3339,352,240,0,0
357,I-475 ZEBULON RD,http://cdn.511ga.org/cameras/BIBB-CAM-031.jpg,32.879878,-83.769632,3340,352,240,0,0
358,I-475 EXT RAMP TO ZEBULON RD,http://cdn.511ga.org/cameras/BIBB-CAM-032.jpg,32.882142,-83.77164,3341,352,240,0,0
359,I-475 MILE POST 10,http://cdn.511ga.org/cameras/BIBB-CAM-033.jpg,32.888038,-83.776888,3342,352,240,1,0
360,I-475 MILE POST 11,http://cdn.511ga.org/cameras/BIBB-CAM-034.jpg,32.896366,-83.78372,3343,352,240,0,0
361,I-475 MILE POST 12,http://cdn.511ga.org/cameras/BIBB-CAM-035.jpg,32.902542,-83.788624,3344,352,240,0,0
362,I-475 MILE POST 12.5,http://cdn.511ga.org/cameras/BIBB-CAM-036.jpg,32.909778,-83.794336,3345,352,240,0,0
363,I-475 ESTES RD,http://cdn.511ga.org/cameras/BIBB-CAM-038.jpg,32.933414,-83.807432,3346,352,240,0,0
364,I-475 MILE POST 14.5,http://cdn.511ga.org/cameras/BIBB-CAM-039.jpg,32.943028,-83.811768,3347,352,240,1,0
365,I-475 US 41,http://cdn.511ga.org/cameras/BIBB-CAM-040.jpg,32.95351,-83.812696,3348,352,240,0,0
366,RIVERSIDE DR NORTHSIDE DR,http://cdn.511ga.org/cameras/BIBB-CAM-530.jpg,32.89077,-83.677336,3349,720,480,0,0
367,I-75 ARKWRIGHT/SABBATH CRK,http://cdn.511ga.org/cameras/BIBB-CAM-531.jpg,32.900364,-83.684688,3350,352,240,0,0
368,RIVERSIDE DR S OF SUE DR,http://cdn.511ga.org/cameras/BIBB-CAM-534.jpg,32.906724,-83.69324,3351,720,480,0,0
369,RIVERSIDE DR HALL RD,http://cdn.511ga.org/cameras/BIBB-CAM-535.jpg,32.915192,-83.705312,3352,720,480,0,0
370,I-75 RIVERSIDE DR,http://cdn.511ga.org/cameras/BIBB-CAM-536.jpg,32.918788,-83.709096,3353,720,480,1,0
371,I-675 SR 138,http://cdn.511ga.org/cameras/GDOT-CAM-602.jpg,33.55371,-84.26872,3354,720,480,0,0
372,I-675 S OF SR 42,http://cdn.511ga.org/cameras/GDOT-CAM-604.jpg,33.573252,-84.275688,3355,720,480,0,0
373,I-675 SR 42,http://cdn.511ga.org/cameras/GDOT-CAM-605.jpg,33.577648,-84.277768,3356,720,480,0,0
374,I-675 N OF EVANS DR,http://cdn.511ga.org/cameras/GDOT-CAM-606.jpg,33.583156,-84.279848,3357,720,480,0,0
375,I-675 N OF REX RD,http://cdn.511ga.org/cameras/GDOT-CAM-607.jpg,33.592064,-84.282848,3358,720,480,0,0
376,I-675 DOUBLE BRDG RD,http://cdn.511ga.org/cameras/GDOT-CAM-608.jpg,33.599316,-84.290848,3359,720,480,0,0
377,I-675 ELLENWOOD RD,http://cdn.511ga.org/cameras/GDOT-CAM-610.jpg,33.611896,-84.296192,3360,720,480,0,0
378,I-675 NORF STHRN RAILROAD,http://cdn.511ga.org/cameras/GDOT-CAM-611.jpg,33.622796,-84.29784,3361,720,480,0,0
379,I-675 S OF GRANT RD,http://cdn.511ga.org/cameras/GDOT-CAM-613.jpg,33.639108,-84.309552,3362,720,480,0,0
380,I-675 GRANT RD,http://cdn.511ga.org/cameras/GDOT-CAM-614.jpg,33.643544,-84.314264,3363,720,480,0,0
381,I-675 N OF GRANT RD,http://cdn.511ga.org/cameras/GDOT-CAM-615.jpg,33.6467,-84.31748,3364,720,480,0,0
382,I-675 CEDAR GROVE RD,http://cdn.511ga.org/cameras/GDOT-CAM-616.jpg,33.656932,-84.325088,3365,720,480,0,0
383,I-675 HENRICO RD,http://cdn.511ga.org/cameras/GDOT-CAM-617.jpg,33.666216,-84.325032,3366,720,480,0,0
384,I-675 S OF I-285,http://cdn.511ga.org/cameras/GDOT-CAM-618.jpg,33.671388,-84.326096,3367,720,480,1,0
385,I-85 OLD NORCROSS RD,http://cdn.511ga.org/cameras/GDOT-CAM-122.jpg,33.959692,-84.114808,3368,720,480,0,0
386,I-85 SR 316,http://cdn.511ga.org/cameras/GDOT-CAM-124.jpg,33.964128,-84.102832,3369,720,480,0,0
387,I-85 BOGGS RD,http://cdn.511ga.org/cameras/GDOT-CAM-126.jpg,33.967436,-84.095632,3370,720,480,0,0
388,I-85 SR120,http://cdn.511ga.org/cameras/GDOT-CAM-129.jpg,33.976984,-84.089672,3371,720,480,0,0
389,I-85 SUGARLOAF PKWY,http://cdn.511ga.org/cameras/GDOT-CAM-131.jpg,33.987392,-84.083224,3372,720,480,0,0
390,I-85 N OF SUGARLOAF PKWY,http://cdn.511ga.org/cameras/GDOT-CAM-132.jpg,33.995272,-84.07796,3373,720,480,0,0
391,SR316 BOGGS RD,http://cdn.511ga.org/cameras/GDOT-CAM-127.jpg,33.964332,-84.094592,3374,720,480,0,0
392,SR316 HERRINGTON RD,http://cdn.511ga.org/cameras/GDOT-CAM-128.jpg,33.962636,-84.078992,3375,720,480,0,0
393,1000 S @ 800 E - Orem,http://www.commuterlink.utah.gov/1_devices/aux14738.jpeg,40.278194,-111.676073,3376,320,240,0,0
394,12300 S @ 265 W - Draper,http://www.commuterlink.utah.gov/1_devices/aux15384.jpeg,40.52656,-111.898946,3377,320,240,0,0
395,1300 E @ 400 S,http://www.commuterlink.utah.gov/1_devices/aux15523.jpeg,40.760701,-111.853905,3378,320,240,0,0
396,1300 S @ 300 W,http://www.commuterlink.utah.gov/1_devices/aux15524.jpeg,40.741639,-111.899659,3379,320,240,0,0
397,1600 N @ Geneva Rd - Orem,http://www.commuterlink.utah.gov/1_devices/aux15369.jpeg,40.32624,-111.737295,3380,320,240,0,0
398,200 N @ 1225 W - Cedar City (Local),http://www.commuterlink.utah.gov/1_devices/aux15011.jpeg,37.679966,-113.077998,3381,320,240,0,0
399,200 N @ 1400 W - Cedar City (Local),http://www.commuterlink.utah.gov/1_devices/aux15012.jpeg,37.680003,-113.080979,3382,320,240,0,0
400,200 N Main St - Cedar City (Local),http://www.commuterlink.utah.gov/1_devices/aux15013.jpeg,37.679929,-113.061119,3383,320,240,0,0
401,200 S @ Main St.,http://www.commuterlink.utah.gov/1_devices/aux15525.jpeg,40.765009,-111.891099,3384,320,240,0,0
402,200 S @ West Temple St.,http://www.commuterlink.utah.gov/1_devices/aux341.jpeg,40.764966,-111.893989,3385,320,240,0,0
403,200 S Main St - Cedar City (Local),http://www.commuterlink.utah.gov/1_devices/aux15096.jpeg,37.672903,-113.061171,3386,320,240,0,0
404,2100 N / Mountain View Corridor @ 2300 W,http://www.commuterlink.utah.gov/1_devices/aux15530.jpeg,40.413287,-111.886962,3387,320,240,0,0
405,2100 S / SR-201 @ 400 W / I-15 NB / MP 17.4,http://www.commuterlink.utah.gov/1_devices/aux80.jpeg,40.72536,-111.901307,3388,320,240,0,0
406,2100 S / SR-201 @ 700 W / MP 17.1,http://www.commuterlink.utah.gov/1_devices/aux78.jpeg,40.729069,-111.912686,3389,320,240,0,0
407,300 W / John Stockton Dr. / US-89 @ South Temple St.,http://www.commuterlink.utah.gov/1_devices/aux137.jpeg,40.769405,-111.899464,3390,320,240,0,0
408,3500 S / SR-171 @ 2700 W / Constitution Blvd.,http://www.commuterlink.utah.gov/1_devices/aux14907.jpeg,40.696669,-111.958564,3391,320,240,0,0
409,3500 S / SR-171 @ 3200 W,http://www.commuterlink.utah.gov/1_devices/aux14906.jpeg,40.696638,-111.967527,3392,320,240,0,0
410,400 S @ 1200 W - Orem,http://www.commuterlink.utah.gov/1_devices/aux14736.jpeg,40.289727,-111.721626,3393,320,240,0,0
411,4100 S @ 4800 W - WVC (Local),http://www.commuterlink.utah.gov/1_devices/aux349.jpeg,40.682049,-112.005685,3394,320,240,0,0
412,500 S / Cesar E. Chavez Blvd. / SR-269 @ Main St.,http://www.commuterlink.utah.gov/1_devices/aux138.jpeg,40.758505,-111.890924,3395,320,240,0,0
413,500 W @ 500 N - Provo,http://www.commuterlink.utah.gov/1_devices/aux14287.jpeg,40.240411,-111.667433,3396,320,240,0,0
414,500 W @ 800 N - Provo,http://www.commuterlink.utah.gov/1_devices/aux14292.jpeg,40.244309,-111.667467,3397,320,240,0,0
415,500 W Bulldog Blvd - Provo,http://www.commuterlink.utah.gov/1_devices/aux14293.jpeg,40.251031,-111.667635,3398,320,240,0,0
416,5600 W / SR-172 @ 2700 S / Lake Park Blvd.,http://www.commuterlink.utah.gov/1_devices/aux15421.jpeg,40.711089,-112.024928,3399,320,240,0,0
417,700 S @ 400 E - St George (Local),http://www.commuterlink.utah.gov/1_devices/aux14927.jpeg,37.096219,-113.574839,3400,320,240,0,0
418,700 S River Rd - St George,http://www.commuterlink.utah.gov/1_devices/aux14925.jpeg,37.096164,-113.557262,3401,320,240,0,0
419,800 N @ 400 E - Orem,http://commuterlink.utah.gov/1_devices/aux14735.jpeg,40.311893,-111.686238,3402,320,240,0,0
420,800 S @ 400 W - Orem,http://www.commuterlink.utah.gov/1_devices/aux14737.jpeg,40.282375,-111.705337,3403,320,240,0,0
421,9400 S @ 2000 E - Sandy,http://commuterlink.utah.gov/1_devices/aux14613.jpeg,40.580411,-111.833993,3404,320,240,0,0
422,Bangerter Hwy. / SR-154 @ 13400 S,http://www.commuterlink.utah.gov/1_devices/aux14478.jpeg,40.507724,-111.982592,3405,320,240,0,0
423,Bangerter Hwy. / SR-154 @ California Ave.,http://www.commuterlink.utah.gov/1_devices/aux15528.jpeg,40.743196,-111.989689,3406,320,240,0,0
424,Bangerter Hwy. / SR-154 @ Redwood Rd. / SR-68,http://www.commuterlink.utah.gov/1_devices/aux14476.jpeg,40.500803,-111.93871,3407,320,240,0,0
425,Bluff St @ 500 N - St George,http://www.commuterlink.utah.gov/1_devices/aux14919.jpeg,37.116698,-113.596788,3408,320,240,0,0
426,Bluff St @ 700 S - St George,http://www.commuterlink.utah.gov/1_devices/aux14987.jpeg,37.096324,-113.586946,3409,320,240,0,0
427,Bluff St @ Main St - St George,http://www.commuterlink.utah.gov/1_devices/aux14989.jpeg,37.086854,-113.584712,3410,320,240,0,0
428,Bluff St @ St George Blvd - STG,http://www.commuterlink.utah.gov/1_devices/aux14915.jpeg,37.109889,-113.593809,3411,320,240,0,0
429,Bluff St @ Sunset Blvd - STG,http://www.commuterlink.utah.gov/1_devices/aux14920.jpeg,37.124465,-113.600458,3412,320,240,0,0
430,Brigham Rd @ Desert Hills Dr - STG,http://www.commuterlink.utah.gov/1_devices/aux15089.jpeg,37.052423,-113.563606,3413,320,240,0,0
431,Canyon Rd @ Foothill Dr Provo,http://www.commuterlink.utah.gov/1_devices/aux14488.jpeg,40.29326,-111.653025,3414,320,240,0,0
432,Canyon Rd @ Univ Pkwy - Provo,http://www.commuterlink.utah.gov/1_devices/aux14298.jpeg,40.256132,-111.656094,3415,320,240,0,0
433,Center St @ Orem Blvd - Orem,http://commuterlink.utah.gov/1_devices/aux14536.jpeg,40.297154,-111.697763,3416,320,240,0,0
434,Columbia Lane @ 1700 N Provo,http://www.commuterlink.utah.gov/1_devices/aux14818.jpeg,40.256691,-111.67544,3417,320,240,0,0
435,US 12,http://www.dot.wisconsin.gov/travel/madison/cameras/cam210.jpg,43.037238,-89.453173,3418,352,260,1,0
436,US 12,http://www.dot.wisconsin.gov/travel/madison/cameras/cam211.jpg,43.034533,-89.443782,3419,352,260,0,0
437,I-794,http://www.dot.wisconsin.gov/travel/milwaukee/cameras/cam093.jpg,43.013882,-87.895653,3420,352,260,0,0
438,Freedom Blvd @ 100 N - Provo,http://commuterlink.utah.gov/1_devices/aux14281.jpeg,40.235128,-111.662225,3421,320,240,0,0
439,Freedom Blvd @ 1100 N - Provo,http://commuterlink.utah.gov/1_devices/aux14290.jpeg,40.248766,-111.662048,3422,320,240,0,0
440,WIS 794,http://www.dot.state.wi.us/travel/milwaukee/cameras/cam115.jpg,42.958884,-87.881851,3423,352,260,0,0
441,Freedom Blvd @ 300 S - Provo,http://commuterlink.utah.gov/1_devices/aux14278.jpeg,40.229703,-111.662245,3424,320,240,0,0
442,Freedom Blvd @ 500 N - Provo,http://commuterlink.utah.gov/1_devices/aux14288.jpeg,40.240415,-111.662173,3425,320,240,0,0
443,Freedom Blvd @ 800 N - Provo,http://commuterlink.utah.gov/1_devices/aux14289.jpeg,40.244324,-111.662111,3426,320,240,0,0
444,Freedom Blvd @ 920 S - Provo,http://commuterlink.utah.gov/1_devices/aux14270.jpeg,40.22177,-111.662302,3427,320,240,0,0
445,Freedom Blvd @ Bulldog - Provo,http://www.commuterlink.utah.gov/1_devices/aux14291.jpeg,40.250594,-111.662022,3428,320,240,0,0
446,Geneva Rd @ 1390 N - Provo,http://commuterlink.utah.gov/1_devices/aux15025.jpeg,40.252287,-111.70593,3429,320,240,0,0
447,I-90/94,http://www.dot.wisconsin.gov/travel/madison/cameras/cam260.jpg,43.57023,-89.77935,3430,352,260,0,0
448,Gentile St. @ Flint St.,http://www.commuterlink.utah.gov/1_devices/aux15488.jpeg,41.060219,-111.975515,3431,320,240,0,0
449,I-39/90/94,http://www.dot.wisconsin.gov/travel/madison/cameras/cam276.jpg,43.11167,-89.28575,3432,352,260,1,0
450,Green Springs @ Buena Vista - STG,http://www.commuterlink.utah.gov/1_devices/aux14922.jpeg,37.129998,-113.526461,3433,320,240,0,0
451,Green Springs @ Red Cliffs Dr - STG,http://www.commuterlink.utah.gov/1_devices/aux14923.jpeg,37.125263,-113.522098,3434,320,240,0,0
452,I-39/I-90,http://www.dot.wisconsin.gov/travel/madison/cameras/cam241.jpg,42.726389,-88.993056,3435,352,260,1,0
453,Harrison Blvd. / Wildcat Way / SR-203 @ 42nd St. / Country Hills Dr.,http://www.commuterlink.utah.gov/1_devices/aux326.jpeg,41.18636,-111.949027,3436,320,240,1,0
454,I-39/I-90,http://www.dot.wisconsin.gov/travel/madison/cameras/cam242.jpg,42.7175,-88.984722,3437,352,260,0,0
455,I-39/I-90,http://www.dot.wisconsin.gov/travel/madison/cameras/cam243.jpg,42.670833,-88.983056,3438,352,260,0,0
456,I-39/I-90,http://www.dot.wisconsin.gov/travel/madison/cameras/cam245.jpg,42.560278,-88.9775,3439,352,260,0,0
457,I-39/I-90,http://www.dot.wisconsin.gov/travel/madison/cameras/cam246.jpg,42.5275,-88.974722,3440,352,260,1,0
458,I-39/I-90,http://www.dot.wisconsin.gov/travel/madison/cameras/cam247.jpg,42.496389,-88.993056,3441,352,260,0,0
459,I-15 @ Main St - Washington 12,http://www.commuterlink.utah.gov/1_devices/aux15141.jpeg,37.135159,-113.509647,3442,320,240,0,0
460,I-15 @ US-9 - Washington 16,http://www.commuterlink.utah.gov/1_devices/aux15139.jpeg,37.164161,-113.449396,3443,320,240,0,0
461,I-15 100 S - St George 8.4,http://www.commuterlink.utah.gov/1_devices/aux14853.jpeg,37.106325,-113.556251,3444,320,240,0,0
462,I-15 2100 E - St George 10.2,http://www.commuterlink.utah.gov/1_devices/aux14868.jpeg,37.117922,-113.53593,3445,320,240,0,0
463,I-15 2450 E - St George 10.5,http://www.commuterlink.utah.gov/1_devices/aux14869.jpeg,37.121646,-113.528588,3446,320,240,0,0
464,US 51,http://www.dot.wisconsin.gov/travel/milwaukee/cameras/cam902.jpg,44.89621,-89.63916,3447,352,260,0,0
465,I-15 400 S - St George 8,http://www.commuterlink.utah.gov/1_devices/aux14854.jpeg,37.100792,-113.557528,3448,320,240,0,0
466,US 51,http://www.dot.wisconsin.gov/travel/milwaukee/cameras/cam903.jpg,44.91167,-89.65154,3449,352,260,0,0
467,US 51,http://www.dot.wisconsin.gov/travel/milwaukee/cameras/cam904.jpg,44.95757,-89.66517,3450,352,260,0,0
468,I-15 500 E - Washington 12.5,http://www.commuterlink.utah.gov/1_devices/aux15142.jpeg,37.143243,-113.50137,3451,320,240,0,0
469,US 51,http://www.dot.wisconsin.gov/travel/milwaukee/cameras/cam905.jpg,44.96234,-89.66119,3452,352,260,0,0
470,I-15 500 W - Washington 11.4,http://www.commuterlink.utah.gov/1_devices/aux15140.jpeg,37.129448,-113.51709,3453,320,240,0,0
471,US 51,http://www.dot.wisconsin.gov/travel/milwaukee/cameras/cam906.jpg,44.86324,-89.64004,3454,352,260,0,0
472,I-43,http://www.dot.wisconsin.gov/travel/milwaukee/cameras/cam096.jpg,43.047263,-87.921733,3455,352,260,0,0
473,I-15 700 S - St George 7.6,http://www.commuterlink.utah.gov/1_devices/aux14855.jpeg,37.096324,-113.561465,3456,320,240,0,0
474,I-794,http://www.dot.wisconsin.gov/travel/milwaukee/cameras/cam016.jpg,43.035255,-87.911987,3457,352,260,0,0
475,I-43,http://www.dot.wisconsin.gov/travel/milwaukee/cameras/cam081.jpg,43.220856,-87.921906,3458,352,260,0,0
476,I-15 Bluff St. - St George 6,http://www.commuterlink.utah.gov/1_devices/aux14988.jpeg,37.083556,-113.582744,3459,320,240,0,0
477,I-43,http://www.dot.state.wi.us/travel/milwaukee/cameras/cam125.jpg,42.932945,-88.158352,3460,352,260,0,0
478,I-15 Eastridge Dr - STG 9.1,http://www.commuterlink.utah.gov/1_devices/aux14866.jpeg,37.116219,-113.551783,3461,320,240,0,0
479,US 41,http://www.dot.wisconsin.gov/travel/greenbay/cameras/cam397.jpg,43.784306,-88.48202,3462,352,260,0,0
480,I-15 Man O War Dr - STG 4,http://www.commuterlink.utah.gov/1_devices/aux14859.jpeg,37.050574,-113.584978,3463,320,240,0,0
481,US 41,http://www.dot.wisconsin.gov/travel/greenbay/cameras/cam398.jpg,43.737709,-88.442613,3464,352,260,0,0
482,I-794,http://www.dot.state.wi.us/travel/milwaukee/cameras/cam197.jpg,43.035778,-87.900383,3465,352,260,0,0
483,I-94,http://www.dot.state.wi.us/travel/milwaukee/cameras/cam124.jpg,43.048287,-88.207399,3466,352,260,0,0
484,I-43,http://www.dot.state.wi.us/travel/milwaukee/cameras/cam119.jpg,43.038506,-87.924164,3467,352,260,0,0
485,I-94,http://www.dot.wisconsin.gov/travel/milwaukee/cameras/cam195.jpg,42.500536,-87.951023,3468,352,260,0,0
486,I-15 Milepost 14 - Washington,http://www.commuterlink.utah.gov/1_devices/aux15136.jpeg,37.150622,-113.47904,3469,320,240,0,0
487,I-94,http://www.dot.wisconsin.gov/travel/madison/cameras/cam237.jpg,43.07541,-88.59145,3470,352,260,0,0
488,I-15 Milepost 14.5 - Washington,http://www.commuterlink.utah.gov/1_devices/aux15137.jpeg,37.15922,-113.47487,3471,320,240,0,0
489,I-43,http://www.dot.state.wi.us/travel/milwaukee/cameras/cam089.jpg,43.176666,-87.917328,3472,352,260,0,0
490,I-15 Milepost 15.3 - Washington,http://www.commuterlink.utah.gov/1_devices/aux15138.jpeg,37.159477,-113.462229,3473,320,240,0,0
491,WIS 119,http://www.dot.state.wi.us/travel/milwaukee/cameras/cam114.jpg,42.947529,-87.909569,3474,352,260,0,0
492,I-94,http://www.dot.wisconsin.gov/travel/madison/cameras/cam502.jpg,44.959791,-92.559364,3475,352,260,0,0
493,I-15 N Southern Pkwy - STG 2.5,http://www.commuterlink.utah.gov/1_devices/aux14861.jpeg,37.031742,-113.598596,3476,320,240,0,0
494,I-94,http://www.dot.wisconsin.gov/travel/madison/cameras/cam508.jpg,44.76748,-91.42265,3477,352,260,0,0
495,I-94,http://www.dot.wisconsin.gov/travel/madison/cameras/cam507.jpg,44.842991,-91.603521,3478,352,260,0,0
496,I-94,http://www.dot.wisconsin.gov/travel/madison/cameras/cam506.jpg,44.884956,-91.728657,3479,352,260,0,0
497,I-15 NB @ 10000 N / MP 377.93,http://www.commuterlink.utah.gov/1_devices/aux14406.jpeg,41.683974,-112.148721,3480,320,240,0,0
498,I-94,http://www.dot.wisconsin.gov/travel/madison/cameras/cam504.jpg,44.57895,-91.20445,3481,352,260,1,0
499,I-90/94,http://www.dot.state.wi.us/travel/madison/cameras/cam517.jpg,43.489358,-89.492791,3482,352,260,0,0
500,I-15 NB @ 1100 S / MP 6.8,http://www.commuterlink.utah.gov/1_devices/aux14856.jpeg,37.087174,-113.573594,3483,320,240,0,0
501,I-94,http://www.dot.wisconsin.gov/travel/milwaukee/cameras/cam187.jpg,42.592514,-87.952348,3484,352,260,0,0
502,US 12,http://www.dot.wisconsin.gov/travel/madison/cameras/cam213.jpg,43.046111,-89.472778,3485,352,260,0,0
503,I-43,http://www.dot.wisconsin.gov/travel/milwaukee/cameras/cam079.jpg,43.139281,-87.913849,3486,352,260,0,0
504,I-15 NB @ 12th St. / SR-39 / MP 344.98,http://www.commuterlink.utah.gov/1_devices/aux14782.jpeg,41.244615,-112.013699,3487,320,240,0,0
505,I-43,http://www.dot.wisconsin.gov/travel/milwaukee/cameras/cam078.jpg,43.117397,-87.919013,3488,352,260,1,0
506,I-43,http://www.dot.wisconsin.gov/travel/milwaukee/cameras/cam077.jpg,43.104777,-87.917814,3489,352,260,0,0
507,I-43,http://www.dot.wisconsin.gov/travel/milwaukee/cameras/cam076.jpg,43.092155,-87.922135,3490,352,260,0,0
508,I-15 NB @ 1500 S / MP 316.23,http://www.commuterlink.utah.gov/1_devices/aux15303.jpeg,40.874741,-111.893191,3491,320,240,0,0
509,I-43,http://www.dot.wisconsin.gov/travel/milwaukee/cameras/cam075.jpg,43.081504,-87.920125,3492,352,260,0,0
510,I-15 NB @ 1680 E / MP 9.5,http://www.commuterlink.utah.gov/1_devices/aux14867.jpeg,37.114943,-113.544867,3493,320,240,0,0
511,I-15 NB @ 1700 S / River Canal / MP 344.5,http://www.commuterlink.utah.gov/1_devices/aux14786.jpeg,41.236856,-112.011312,3494,320,240,0,0
512,US 41,http://www.dot.state.wi.us/travel/greenbay/cameras/cam362.jpg,43.989905,-88.582914,3495,352,260,0,0
513,US 41,http://www.dot.state.wi.us/travel/greenbay/cameras/cam363.jpg,44.010869,-88.582447,3496,352,260,0,0
514,I-15 NB @ 1800 S / MP 326.23,http://www.commuterlink.utah.gov/1_devices/aux15135.jpeg,41.00593,-111.928364,3497,320,240,0,0
515,US 41,http://www.dot.state.wi.us/travel/greenbay/cameras/cam361.jpg,43.950586,-88.583397,3498,352,260,0,0
516,US 41,http://www.dot.state.wi.us/travel/greenbay/cameras/cam365.jpg,44.059759,-88.574678,3499,352,260,0,0
517,I-15 NB @ 2350 N / MP 282.7,http://www.commuterlink.utah.gov/1_devices/aux15014.jpeg,40.417894,-111.874178,3500,320,240,0,0
518,I-94,http://www.dot.state.wi.us/travel/milwaukee/cameras/cam116.jpg,43.04626,-88.25572,3501,352,260,0,0
519,I-15 NB @ 24th St. / SR-53 / MP 343.1,http://www.commuterlink.utah.gov/1_devices/aux14779.jpeg,41.220941,-112.002658,3502,320,240,0,0
520,I-15 NB @ 2650 S / 24th St. NB Exit / MP 342.9,http://www.commuterlink.utah.gov/1_devices/aux14778.jpeg,41.217161,-111.998778,3503,320,240,0,0
521,I-94,http://www.dot.state.wi.us/travel/milwaukee/cameras/cam102.jpg,43.02953,-88.15156,3504,352,260,0,0
522,I-15 NB @ 2700 N / SR-134 / MP 349.34,http://www.commuterlink.utah.gov/1_devices/aux14788.jpeg,41.30798,-112.023846,3505,320,240,0,0
523,I-94,http://www.dot.state.wi.us/travel/milwaukee/cameras/cam097.jpg,43.02762,-88.07723,3506,352,260,0,0
524,I-94,http://www.dot.state.wi.us/travel/milwaukee/cameras/cam101.jpg,43.0257,-88.03664,3507,352,260,0,0
525,I-15 NB @ 29th St. / MP 342.5,http://www.commuterlink.utah.gov/1_devices/aux14775.jpeg,41.212983,-111.994799,3508,320,240,0,0
526,I-94,http://www.dot.state.wi.us/travel/milwaukee/cameras/cam177.jpg,43.035272,-87.944857,3509,352,260,0,0
527,I-15 NB @ 31st St. / Hinkley Dr. / SR-79 / MP 341.93,http://www.commuterlink.utah.gov/1_devices/aux14776.jpeg,41.204042,-111.99054,3510,320,240,0,0
528,I-94,http://www.dot.state.wi.us/travel/milwaukee/cameras/cam100.jpg,43.033333,-87.968538,3511,352,260,0,0
529,I-43/94,http://www.dot.state.wi.us/travel/milwaukee/cameras/cam052.jpg,42.962672,-87.937664,3512,352,260,0,0
530,I-15 NB @ 3300 S / SR-171 / MP 303.49,http://www.commuterlink.utah.gov/1_devices/aux102.jpeg,40.702381,-111.899785,3513,320,240,0,0
531,I-43,http://www.dot.state.wi.us/travel/milwaukee/cameras/cam053.jpg,42.963159,-87.935604,3514,352,260,0,0
532,I-90/94,http://www.dot.state.wi.us/travel/madison/cameras/cam518.jpg,43.514074,-89.523389,3515,352,260,0,0
533,I-90/94,http://www.dot.state.wi.us/travel/madison/cameras/cam519.jpg,43.534549,-89.581883,3516,352,260,0,0
534,US 51,http://www.dot.wi.gov/travel/madison/cameras/cam267.jpg,43.195478,-89.324133,3517,352,260,0,0
535,I-94,http://www.dot.wisconsin.gov/travel/madison/cameras/cam250.jpg,44.018831,-90.496659,3518,352,260,0,0
536,I-94,http://www.dot.wisconsin.gov/travel/madison/cameras/cam253.jpg,43.986811,-90.44014,3519,352,260,0,0
537,I-94,http://www.dot.wisconsin.gov/travel/madison/cameras/cam252.jpg,43.985599,-90.448165,3520,352,260,0,0
538,I-15 NB @ 4600 S / MP 339.68,http://www.commuterlink.utah.gov/1_devices/aux15106.jpeg,41.179198,-112.015763,3521,320,240,0,0
539,I-94,http://www.dot.wisconsin.gov/travel/madison/cameras/cam251.jpg,43.997425,-90.471736,3522,352,260,0,0
540,I-15 NB @ 500 E / SR-180 / MP 276.5,http://www.commuterlink.utah.gov/1_devices/aux15494.jpeg,40.361854,-111.785662,3523,320,240,0,0
541,I-90/94,http://www.dot.wisconsin.gov/travel/madison/cameras/cam254.jpg,43.962174,-90.378031,3524,352,260,0,0
542,I-90,http://www.dot.wisconsin.gov/travel/madison/cameras/cam255.jpg,43.972305,-90.472777,3525,352,260,0,0
543,I-90,http://www.dot.wisconsin.gov/travel/madison/cameras/cam256.jpg,43.957565,-90.505071,3526,352,260,0,0
544,I-90/94,http://www.dot.wisconsin.gov/travel/madison/cameras/cam257.jpg,43.922291,-90.262213,3527,352,260,0,0
545,I-94,http://www.dot.wisconsin.gov/travel/madison/cameras/cam234.jpg,43.108847,-89.083623,3528,352,260,0,0
546,I-15 NB @ 600 E / MP 280.3,http://www.commuterlink.utah.gov/1_devices/aux15016.jpeg,40.39671,-111.838938,3529,320,240,0,0
547,I-94,http://www.dot.wisconsin.gov/travel/milwaukee/cameras/cam135.jpg,42.543453,-87.952584,3530,352,260,0,0
548,I-39/90/94,http://www.dot.wisconsin.gov/travel/madison/cameras/cam248.jpg,43.334902,-89.453977,3531,352,260,0,0
549,I-15 NB @ 600 S / MP 255,http://www.commuterlink.utah.gov/1_devices/aux15094.jpeg,40.102186,-111.683967,3532,320,240,0,0
550,I-94,http://www.dot.state.wi.us/travel/milwaukee/cameras/cam118.jpg,42.944629,-87.935209,3533,352,260,0,0
551,I-15 NB @ 600 S Exit / MP 307.36,http://www.commuterlink.utah.gov/1_devices/aux114.jpeg,40.755094,-111.905737,3534,320,240,0,0
552,I-39/90/94,http://www.dot.wisconsin.gov/travel/madison/cameras/cam249.jpg,43.391631,-89.467195,3535,352,260,0,0
553,I-43,http://www.dot.state.wi.us/travel/greenbay/cameras/cam371.jpg,43.754311,-87.763762,3536,352,260,0,0
554,I-15 NB @ 6600 S / MP 298.5,http://www.commuterlink.utah.gov/1_devices/aux90.jpeg,40.627353,-111.899092,3537,320,240,0,0
555,I-43,http://www.dot.state.wi.us/travel/greenbay/cameras/cam372.jpg,43.717489,-87.760785,3538,352,260,0,0
556,I-15 NB @ 800 N / SR-52 / MP 271.7,http://www.commuterlink.utah.gov/1_devices/aux15375.jpeg,40.311891,-111.723501,3539,320,240,0,0
557,I-43,http://www.dot.state.wi.us/travel/greenbay/cameras/cam373.jpg,43.792728,-87.763896,3540,352,260,0,0
558,I-39/I-90,http://www.dot.wisconsin.gov/travel/madison/cameras/cam275.jpg,43.101028,-89.285148,3541,352,260,0,0
559,I-15 NB @ 900 S / MP 327.34,http://www.commuterlink.utah.gov/1_devices/aux15134.jpeg,41.020521,-111.940238,3542,320,240,0,0
560,I-94,http://www.dot.wisconsin.gov/travel/madison/cameras/cam503.jpg,44.963674,-92.680179,3543,352,260,0,0
561,I-15 NB @ 9000 S / SR-209 / MP 295.66,http://www.commuterlink.utah.gov/1_devices/aux85.jpeg,40.589147,-111.895936,3544,320,240,0,0
562,I-94,http://www.dot.wisconsin.gov/travel/madison/cameras/cam238.jpg,43.08641,-88.76113,3545,352,260,0,0
563,I-15 NB @ 9600 S / MP 294.76,http://www.commuterlink.utah.gov/1_devices/aux83.jpeg,40.580122,-111.896711,3546,320,240,0,0
564,US 53,http://www.dot.wisconsin.gov/travel/madison/cameras/cam505.jpg,44.79496,-91.45675,3547,352,260,0,0
565,US 151,http://www.dot.wisconsin.gov/travel/madison/cameras/cam299.jpg,43.17569,-89.24965,3548,352,260,0,0
566,US 41,http://www.dot.wisconsin.gov/travel/greenbay/cameras/cam385.jpg,44.539785,-88.074651,3549,352,260,0,0
567,WIS 29,http://www.dot.wisconsin.gov/travel/greenbay/cameras/cam386.jpg,44.542656,-88.087891,3550,352,260,0,0
568,I-15 NB @ Church St. / MP 330.75,http://www.commuterlink.utah.gov/1_devices/aux15493.jpeg,41.063676,-111.966829,3551,320,240,0,0
569,I-794,http://www.dot.wisconsin.gov/travel/milwaukee/cameras/cam165.jpg,42.988314,-87.888389,3552,352,260,0,0
570,US 12,http://www.dot.wisconsin.gov/travel/madison/cameras/cam235.jpg,43.045025,-89.323818,3553,352,260,0,0
571,US 12,http://www.dot.wisconsin.gov/travel/madison/cameras/cam236.jpg,43.046081,-89.307515,3554,352,260,0,0
572,I-15 NB @ Layton Pkwy. / SR-126 / MP 330.12,http://www.commuterlink.utah.gov/1_devices/aux15389.jpeg,41.05582,-111.958754,3555,320,240,0,0
573,US 12,http://www.dot.wisconsin.gov/travel/madison/cameras/cam240.jpg,43.035474,-89.423114,3556,352,260,0,0
574,US 41,http://www.dot.state.wi.us/travel/greenbay/cameras/cam367.jpg,44.12404,-88.500785,3557,352,260,0,0
575,I-15 NB @ Pioneer Crossing / Main St. / SR-145 / MP 278.58,http://www.commuterlink.utah.gov/1_devices/aux15357.jpeg,40.376849,-111.816941,3558,320,240,0,0
576,US 41,http://www.dot.state.wi.us/travel/greenbay/cameras/cam366.jpg,44.097037,-88.544058,3559,352,260,0,0
577,US 41,http://www.dot.state.wi.us/travel/greenbay/cameras/cam368.jpg,44.155823,-88.485196,3560,352,260,0,0
578,I-15 NB @ Shepard Ln. / MP 325.43,http://www.commuterlink.utah.gov/1_devices/aux15097.jpeg,40.999294,-111.916787,3561,320,240,0,0
579,I-39/90/94,http://www.dot.wisconsin.gov/travel/madison/cameras/cam284.jpg,43.250617,-89.377417,3562,352,260,0,0
580,US 41,http://www.dot.wisconsin.gov/travel/greenbay/cameras/cam381.jpg,44.431083,-88.112805,3563,352,260,0,0
581,I-15 NB @ SR-75 / 1400 N / MP 261.83,http://www.commuterlink.utah.gov/1_devices/aux14425.jpeg,40.189398,-111.642081,3564,320,240,0,0
582,US-41,http://www.dot.wisconsin.gov/travel/greenbay/cameras/cam382.jpg,44.455104,-88.088769,3565,352,260,0,0
583,I-15 NB @ SR-77 / 400 S / MP 260,http://www.commuterlink.utah.gov/1_devices/aux15099.jpeg,40.160663,-111.642178,3566,320,240,0,0
584,US 41,http://www.dot.wisconsin.gov/travel/greenbay/cameras/cam383.jpg,44.508749,-88.083193,3567,352,260,0,0
585,US 41,http://www.dot.wisconsin.gov/travel/greenbay/cameras/cam384.jpg,44.5246,-88.082592,3568,352,260,0,0
586,US 12/18,http://www.dot.state.wi.us/travel/madison/cameras/cam262.jpg,43.040806,-89.378611,3569,352,260,0,0
587,I-15 NB @ Virgin River / MP 5.33,http://www.commuterlink.utah.gov/1_devices/aux14857.jpeg,37.069725,-113.580722,3570,320,240,0,0
588,I-94,http://www.dot.state.wi.us/travel/madison/cameras/cam274.jpg,43.103333,-89.267417,3571,352,260,0,0
589,I-15 NB Brigham Rd - STG 4.6,http://www.commuterlink.utah.gov/1_devices/aux14858.jpeg,37.058128,-113.58019,3572,320,240,0,0
590,I-94,http://www.dot.state.wi.us/travel/milwaukee/cameras/cam130.jpg,43.026988,-88.016864,3573,352,260,0,0
591,I-15 North POE - STG 1.2,http://www.commuterlink.utah.gov/1_devices/aux14863.jpeg,37.017591,-113.607959,3574,320,240,0,0
592,US 12,http://www.dot.wisconsin.gov/travel/madison/cameras/cam212.jpg,43.036111,-89.395,3575,352,260,0,0
593,US 12,http://www.dot.wisconsin.gov/travel/madison/cameras/cam214.jpg,43.035,-89.406667,3576,352,260,0,0
594,I-15 SB @ 10600 S / South Jordan Pkwy. / SR-151 / MP 293.6,http://www.commuterlink.utah.gov/1_devices/aux81.jpeg,40.560243,-111.902359,3577,320,240,0,0
595,I-39/90/94,http://www.dot.wisconsin.gov/travel/madison/cameras/cam215.jpg,43.445278,-89.491389,3578,352,260,0,0
596,East Washington Ave.,http://www.dot.wisconsin.gov/travel/madison/cameras/cam217.jpg,43.106944,-89.338889,3579,352,260,0,0
597,East Washington Ave.,http://www.dot.wisconsin.gov/travel/madison/cameras/cam216.jpg,43.101944,-89.347778,3580,352,260,0,0
598,East Washington Ave.,http://www.dot.wisconsin.gov/travel/madison/cameras/cam218.jpg,43.116389,-89.324722,3581,352,260,1,0
599,WIS 30,http://www.dot.wisconsin.gov/travel/madison/cameras/cam219.jpg,43.106667,-89.315833,3582,352,260,0,0
600,I-39/90/94,http://www.dot.wisconsin.gov/travel/madison/cameras/cam220.jpg,43.194167,-89.345,3583,352,260,0,0
601,I-15 SB @ 1300 W / MP 274.6,http://www.commuterlink.utah.gov/1_devices/aux14811.jpeg,40.338325,-111.758132,3584,320,240,0,0
602,I-39/90/94,http://www.dot.wisconsin.gov/travel/madison/cameras/cam221.jpg,43.179167,-89.323889,3585,352,260,0,0
603,I-39/90/94,http://www.dot.wisconsin.gov/travel/madison/cameras/cam222.jpg,43.136667,-89.296111,3586,352,260,0,0
604,I-15 SB @ 1400 N / MP 320.46,http://www.commuterlink.utah.gov/1_devices/aux15111.jpeg,40.936882,-111.894344,3587,320,240,0,0
605,I-39/I-90,http://www.dot.wisconsin.gov/travel/madison/cameras/cam224.jpg,43.074167,-89.28,3588,352,260,0,0
606,I-39/I-90,http://www.dot.wisconsin.gov/travel/madison/cameras/cam225.jpg,43.084444,-89.284167,3589,352,260,0,0
607,I-94,http://www.dot.wisconsin.gov/travel/madison/cameras/cam226.jpg,43.103889,-89.249722,3590,352,260,0,0
608,I-94,http://www.dot.wisconsin.gov/travel/madison/cameras/cam227.jpg,43.11,-89.198611,3591,352,260,0,0
609,East Washington Ave.,http://www.dot.wisconsin.gov/travel/madison/cameras/cam228.jpg,43.093056,-89.358056,3592,352,260,0,0
610,East Washington Ave.,http://www.dot.wisconsin.gov/travel/madison/cameras/cam233.jpg,43.078333,-89.378889,3593,352,260,0,0
611,I-15 SB @ 1800 N / Harrisville Rd. / MP 348.24,http://www.commuterlink.utah.gov/1_devices/aux14787.jpeg,41.289677,-112.027924,3594,320,240,0,0
612,East Johnson,http://www.dot.wisconsin.gov/travel/madison/cameras/cam229.jpg,43.094167,-89.362222,3595,352,260,1,0
613,I-15 SB @ 1850 N / MP 282,http://www.commuterlink.utah.gov/1_devices/aux14792.jpeg,40.40993,-111.863929,3596,320,240,0,0
614,I-15 SB @ 21st St. / SR-104 / MP 343.86,http://www.commuterlink.utah.gov/1_devices/aux14783.jpeg,41.227605,-112.014197,3597,320,240,0,0
615,I-15 SB @ 2300 N / MP 337.48,http://www.commuterlink.utah.gov/1_devices/aux15105.jpeg,41.146944,-112.027192,3598,320,240,0,0
616,"US 89 Alpine Junction - E, S, N",http://www.wyoroad.info/highway/webcameras/US89AlpineJct/US89AlpineJctCanyon.jpg,43.172298,-111.018425,3599,704,480,0,0
617,"Arlington Interchange W, E",http://www.wyoroad.info/highway/webcameras/I80Arlington/I80ArlingtonEast.jpg,41.597812,-106.213891,3600,1280,720,0,0
618,I-15 SB @ 2300 S / MP 304.9,http://www.commuterlink.utah.gov/1_devices/aux105.jpeg,40.720598,-111.908367,3601,320,240,0,0
619,Arlington East,http://www.wyoroad.info/highway/webcameras/I80ArlingtonEast/I80ArlingtonEastW.jpg,41.587455,-106.179183,3602,704,480,1,0
620,I-15 SB @ 24th St. / Pennsylvania Ave. / SR-53 / MP 343.12,http://www.commuterlink.utah.gov/1_devices/aux14784.jpeg,41.217558,-112.008825,3603,320,240,0,0
621,Baxter Road,http://www.wyoroad.info/highway/webcameras/I80BaxterRd/I80BaxterRdWest.jpg,41.615438,-109.12138,3604,704,480,0,0
622,I-15 SB @ 2550 S / MP 304.53,http://www.commuterlink.utah.gov/1_devices/aux104.jpeg,40.714175,-111.907564,3605,320,240,0,0
623,Beaver Rim,http://www.wyoroad.info/highway/webcameras/US287BeaverRim/US287BeaverRimWest.jpg,42.584694,-108.290527,3606,640,480,1,0
624,I-15 SB @ 25th St. / MP 343.4,http://www.commuterlink.utah.gov/1_devices/aux14785.jpeg,41.220543,-112.01171,3607,320,240,0,0
625,Beulah Interchange,http://www.wyoroad.info/highway/webcameras/I90Beulah/I90BeulahWest.jpg,44.542799,-104.081026,3608,800,450,1,0
626,I-15 SB @ 3300 S / SR-171 / MP 303.45,http://www.commuterlink.utah.gov/1_devices/aux101.jpeg,40.697563,-111.905405,3609,320,240,0,0
627,Buffalo,http://www.wyoroad.info/highway/webcameras/I90Buffalo/I90Buffalo.jpg,44.371675,-106.689387,3610,704,480,0,0
628,I-15 SB @ 3650 S / MP 341.2,http://www.commuterlink.utah.gov/1_devices/aux14777.jpeg,41.196669,-112.003056,3611,320,240,0,0
629,Buford East,http://www.wyoroad.info/highway/webcameras/I80BufordEast/I80BufordEastW.jpg,41.121022,-105.287,3612,704,480,1,0
630,I-15 SB @ 400 N / Pioneer Rd. / MP 346.72,http://www.commuterlink.utah.gov/1_devices/aux14781.jpeg,41.26829,-112.028422,3613,320,240,0,0
631,I-15 SB @ 400 N / SR-106 / MP 317.55,http://www.commuterlink.utah.gov/1_devices/aux15098.jpeg,40.894174,-111.897614,3614,320,240,0,0
632,Cheyenne North,http://www.wyoroad.info/highway/webcameras/I25CheyenneNorth/I25CheyenneNorthS.jpg,41.213392,-104.837389,3615,704,480,0,0
633,I-15 SB @ 400 S / MP 345.93,http://www.commuterlink.utah.gov/1_devices/aux14780.jpeg,41.258343,-112.026233,3616,320,240,0,0
634,Church Butte,http://www.wyoroad.info/highway/webcameras/I80ChurchButte/I80ChurchButteWest.jpg,41.4297997,-110.1205,3617,720,480,1,0
635,I-15 SB @ 4500 S / SR-266 / MP 301.65,http://www.commuterlink.utah.gov/1_devices/aux97.jpeg,40.673089,-111.905543,3618,320,240,0,0
636,College Dr,http://www.wyoroad.info/highway/webcameras/I80CollegeDrive/I80CollegeDriveWest.jpg,41.589502,-109.247314,3619,704,480,1,0
637,College Drive,http://www.wyoroad.info/highway/webcameras/I25College/I25CollegeSouth.jpg,41.104535,-104.850659,3620,1280,720,0,0
638,Continental Divide,http://www.wyoroad.info/highway/webcameras/I80ContinentalDivide/I80ContDivideWest.jpg,41.715858,-107.782559,3621,1280,720,1,0
639,I-15 SB @ 5300 S / SR-173 / MP 300.35,http://www.commuterlink.utah.gov/1_devices/aux94.jpeg,40.654788,-111.904533,3622,320,240,0,0
640,Cooper Cove,http://www.wyoroad.info/highway/webcameras/I80CooperCove/I80CooperCoveWest.jpg,41.548821,-106.088866,3623,704,480,0,0
641,Cooper Cove East,http://www.wyoroad.info/highway/webcameras/I80CooperCoveEast/I80CooperCoveEastW.jpg,41.5355,-106.077167,3624,800,450,1,0
642,County Road 402,http://www.wyoroad.info/highway/webcameras/I80CountyRd402/I80CountyRd402West.jpg,41.669615,-106.370879,3625,704,480,1,0
643,I-15 SB @ 5800 S / MP 299.7,http://www.commuterlink.utah.gov/1_devices/aux92.jpeg,40.643632,-111.906789,3626,320,240,0,0
644,Name of site (any description or direction of cameras),http://www.wyoroad.info/highway/webcameras/I25DeerCreek/I25DeerCreekSouth.jpg,42.834926,-105.855612,3627,1280,720,1,0
645,I-15 SB @ 600 S / MP 318.76,http://www.commuterlink.utah.gov/1_devices/aux15302.jpeg,40.910807,-111.89376,3628,320,240,0,0
646,Douglas,http://www.wyoroad.info/highway/webcameras/WYO59Douglas/WYO59DouglasSouth.jpg,42.796606,-105.353163,3629,1280,720,0,0
647,I-15 SB @ 700 S / SR-193 / MP 334.08,http://www.commuterlink.utah.gov/1_devices/aux5225.jpeg,41.103017,-112.007059,3630,320,240,0,0
648,East Douglas,http://www.wyoroad.info/highway/webcameras/I25DouglasEast/I25DouglasEastS.jpg,42.719658,-105.311928,3631,1280,720,0,0
649,Elk Mountain,http://www.wyoroad.info/highway/webcameras/I80ElkMtn/I80ElkMtnWest.jpg,41.722311,-106.459056,3632,704,480,0,0
650,Elk Street,http://www.wyoroad.info/highway/webcameras/I80ElkStreet/I80ElkStreetWest.jpg,41.606102,-109.234186,3633,704,480,0,0
651,I-15 SB @ 9100 S / MP 295.48,http://www.commuterlink.utah.gov/1_devices/aux84.jpeg,40.584828,-111.904187,3634,320,240,0,0
652,First Divide,http://www.wyoroad.info/highway/webcameras/I80FirstDivide/I80FstDivideWest.jpg,41.273707,-110.805054,3635,704,480,0,0
653,Foote Creek,http://www.wyoroad.info/highway/webcameras/I80FooteCreek/I80FooteCreekWest.jpg,41.62137,-106.24106,3636,704,480,0,0
654,I-15 SB @ Center St. / MP 334.93,http://www.commuterlink.utah.gov/1_devices/aux15359.jpeg,41.113794,-112.015766,3637,320,240,0,0
655,French Interchange,http://www.wyoroad.info/highway/webcameras/I80FrenchInt/I80FrenchIntWest.jpg,41.30032,-110.545188,3638,640,480,0,0
656,Gillette,http://www.wyoroad.info/highway/webcameras/I90Gillette/I90GilletteWest.jpg,44.29024,-105.467089,3639,704,480,0,0
657,I-15 SB @ I-215 South Interchange / MP 299,http://www.commuterlink.utah.gov/1_devices/aux91.jpeg,40.63959,-111.907786,3640,320,240,0,0
658,Hadsell,http://www.wyoroad.info/highway/webcameras/I80HadsellIntchg/I80HadsellIntchgWest.jpg,41.788222,-107.375019,3641,800,450,1,0
659,Halleck Ridge,http://www.wyoroad.info/highway/webcameras/I80HalleckRidge/I80HalleckRidgeWest.jpg,41.753245,-106.511468,3642,704,480,0,0
660,Herrick Lane,http://www.wyoroad.info/highway/webcameras/I80HerrickLn/I80HerrickLnWest.jpg,41.395021,-105.824061,3643,1280,720,1,0
661,Hiland,http://www.wyoroad.info/highway/webcameras/US2026Hiland/US2026Hiland.jpg,43.091907,-107.321596,3644,1280,720,0,0
662,Hoback Rim,http://www.wyoroad.info/highway/webcameras/US191HobackRim/US191HobackRimWest.jpg,43.13061,-110.191844,3645,640,480,1,0
663,I-15 SB @ Pioneer Crossing / Main St. / SR-145 / MP 278.6,http://www.commuterlink.utah.gov/1_devices/aux15358.jpeg,40.376888,-111.82063,3646,320,240,0,0
664,ID State Line,http://www.wyoroad.info/highway/webcameras/WYO22IDStateLine/WYO22IDStateLineWest.jpg,43.543348,-111.045692,3647,800,450,1,0
665,Indian Creek Rd,http://www.wyoroad.info/highway/webcameras/I90IndianCreekRd/I90IndianCreekRdWest.jpg,44.195838,-106.255174,3648,704,480,0,0
666,I-15 SB @ Sugar Leo Rd. / MP 3.06,http://www.commuterlink.utah.gov/1_devices/aux14860.jpeg,37.040785,-113.596043,3649,320,240,0,0
667,Inyan Kara,http://www.wyoroad.info/highway/webcameras/I90InyanKara/I90InyanKaraWest.jpg,44.294137,-104.629259,3650,704,480,0,0
668,I-15 SB Brigham Rd - STG 4.6,http://www.commuterlink.utah.gov/1_devices/aux14862.jpeg,37.059511,-113.584552,3651,320,240,0,0
669,I-15 South POE - STG 0.7,http://www.commuterlink.utah.gov/1_devices/aux14864.jpeg,37.007165,-113.614024,3652,320,240,0,0
670,Laramie West,http://www.wyoroad.info/highway/webcameras/I80LaramieWest/I80LaramieWestN.jpg,41.318555,-105.614926,3653,800,450,0,0
671,I-15 St George Blvd - STG 8.8,http://www.commuterlink.utah.gov/1_devices/aux14917.jpeg,37.10969,-113.559249,3654,320,240,0,0
672,Little America,http://www.wyoroad.info/highway/webcameras/I80LittleAmerica/I80LittleAmericaWest.jpg,41.542943,-109.843353,3655,1280,720,0,0
673,I-15 VMS  - St George 0.2,http://www.commuterlink.utah.gov/1_devices/aux14865.jpeg,36.999079,-113.618811,3656,320,240,0,0
674,Lone Tree,http://www.wyoroad.info/highway/webcameras/I80LoneTree/I80LoneTreeWest.jpg,41.128215,-105.339177,3657,1280,720,1,0
675,I-15 Washington Parkway - WAS 13,http://www.commuterlink.utah.gov/1_devices/aux15143.jpeg,37.1435,-113.48674,3658,320,240,0,0
676,Lusk Relay Tower,http://www.wyoroad.info/highway/webcameras/US1820Lusk/US1820LuskWest.jpg,42.747876,-104.515065,3659,1280,720,0,0
677,MP 353.0,http://www.wyoroad.info/highway/webcameras/I80MM353/I80MM353West.jpg,41.109591,-104.974878,3660,704,480,1,0
678,Marbleton North,http://www.wyoroad.info/highway/webcameras/US189MarbletonNorth/US189MarbletonNorthS.jpg,42.583912,-110.088946,3661,704,480,0,0
679,Mile Marker 108,http://www.wyoroad.info/highway/webcameras/I90MM108/I90MM108West.jpg,44.217702,-105.812731,3662,704,480,0,0
680,Montana Line,http://www.wyoroad.info/highway/webcameras/I90MTStateLine/I90MTStateLineSouth.jpg,44.999762,-107.297966,3663,1280,720,1,0
681,"Peru Hill I80 W, E",http://www.wyoroad.info/highway/webcameras/I80PeruHill/I80PeruHillEast.jpg,41.549334,-109.601643,3664,1280,720,0,0
682,I-215 E SB @ 3900 S / MP 2.73,http://www.commuterlink.utah.gov/1_devices/aux3.jpeg,40.686932,-111.801529,3665,320,240,0,0
683,Pilot Butte,http://www.wyoroad.info/highway/webcameras/I80PilotButte/I80PilotButteWest.jpg,41.598139,-109.199472,3666,704,480,0,0
684,Pine Bluffs,http://www.wyoroad.info/highway/webcameras/I80PineBluffs/I80PineBluffsWest.jpg,41.172596,-104.083162,3667,1280,720,1,0
685,I-215 E SB @ 4500 S / SR-266 / MP 3.67,http://www.commuterlink.utah.gov/1_devices/aux5.jpeg,40.675083,-111.806623,3668,320,240,0,0
686,Pine Tree Junction,http://www.wyoroad.info/highway/webcameras/WYO387PineTreeJct/WYO387PineTreeJctWest.jpg,43.617424,-105.785937,3669,1280,720,0,0
687,I-215 N EB @ Redwood Rd. / SR-68 / MP 27.8,http://www.commuterlink.utah.gov/1_devices/aux15490.jpeg,40.831923,-111.93633,3670,320,240,0,0
688,Point of Rocks,http://www.wyoroad.info/highway/webcameras/I80PointOfRocks/I80PointOfRocksWest.jpg,41.682453,-108.801413,3671,704,480,0,0
689,I-215 N WB @ Redwood Rd. / SR-68 / MP 27.9,http://www.commuterlink.utah.gov/1_devices/aux15491.jpeg,40.835568,-111.934659,3672,320,240,0,0
690,Quealy Dome,http://www.wyoroad.info/highway/webcameras/I80QuealyDome/I80QuealyDomeWest.jpg,41.443909,-105.961279,3673,1280,720,1,0
691,Ranchester Interchange,http://www.wyoroad.info/highway/webcameras/I90Ranchester/I90RanchesterSouth.jpg,44.916972,-107.157722,3674,1280,720,0,0
692,I-215 S EB @ 300 E / MP 10.18,http://www.commuterlink.utah.gov/1_devices/aux17.jpeg,40.627021,-111.882537,3675,320,240,0,0
693,Remount,http://www.wyoroad.info/highway/webcameras/I80Remount/I80RemountWest.jpg,41.098458,-105.20976,3676,704,480,0,0
694,Rock Springs West,http://www.wyoroad.info/highway/webcameras/I80RockSpringsWest/I80RockSpringsWestW.jpg,41.548168,-109.331717,3677,720,480,0,0
695,I-215 S EB @ State St. / US-89 / MP 10.5,http://www.commuterlink.utah.gov/1_devices/aux18.jpeg,40.627851,-111.889901,3678,320,240,0,0
696,US30 Sage Junction MP 34,http://www.wyoroad.info/highway/webcameras/US30SageJct/US30SageJct.jpg,41.824075,-110.903234,3679,1280,720,1,0
697,Sand Draw,http://www.wyoroad.info/highway/webcameras/US191SandDraw/US191SandDrawSouth.jpg,42.604516,-109.637612,3680,1280,720,0,0
698,Sinclair,http://www.wyoroad.info/highway/webcameras/I80Sinclair/I80SinclairWest.jpg,41.771608,-107.086581,3681,704,480,1,0
699,Skyline,http://www.wyoroad.info/highway/webcameras/WYO230Skyline/WYO230SkylineWest.jpg,41.137531,-106.576869,3682,1280,720,0,0
700,Summit East,http://www.wyoroad.info/highway/webcameras/I80SummitEast/I80SummitEastW.jpg,41.200793,-105.434611,3683,704,480,1,0
701,Tipton,http://www.wyoroad.info/highway/webcameras/I80Tipton/I80TiptonWest.jpg,41.630102,-108.296616,3684,1280,720,1,0
702,Twenty Mile Hill,http://www.wyoroad.info/highway/webcameras/I25TwentyMileHill/I25TwentyMileHillSouth.jpg,43.122712,-106.337049,3685,1280,720,1,0
703,Wagonhound,http://www.wyoroad.info/highway/webcameras/I80Wagonhound/I80WagonhoundWest.jpg,41.639607,-106.293165,3686,704,480,0,0
704,"Walcott Junction I80 W, Exit, E",http://www.wyoroad.info/highway/webcameras/I80Walcott/I80WalcottEast.jpg,41.741053,-106.837876,3687,704,480,1,0
705,Wamsutter Interchange,http://www.wyoroad.info/highway/webcameras/I80Wamsutter/I80WamsutterWest.jpg,41.674809,-107.9796,3688,720,480,0,0
706,I-215 W SB @ 4300 S / MP 16.18,http://www.commuterlink.utah.gov/1_devices/aux28.jpeg,40.675859,-111.955048,3689,320,240,0,0
707,Warren Interchange,http://www.wyoroad.info/highway/webcameras/I80Warren/I80WarrenWest.jpg,41.098816,-105.125472,3690,704,480,1,0
708,Wilson,http://www.wyoroad.info/highway/webcameras/WYO22Wilson/WYO22WilsonWest.jpg,43.499816,-110.8999,3691,640,480,1,0
709,I25 RATON PASS,http://www.cotrip.org/images/ws/camera?imageURL=164,37.087444,-104.521154,3692,352,240,0,0
710,025N008  RATON PASS (RWIS),http://www.cotrip.org/images/ws/camera?imageURL=215,37.086807,-104.521294,3693,352,240,0,0
711,025N033 AGUILAR,http://www.cotrip.org/images/ws/camera?imageURL=243,37.417255,-104.631233,3694,704,480,0,0
712,025N033 AGUILAR,http://www.cotrip.org/images/ws/camera?imageURL=244,37.417255,-104.631233,3695,704,480,0,0
713,I25 APACHE CITY,http://www.cotrip.org/images/ws/camera?imageURL=165,37.859318,-104.826645,3696,320,240,0,0
714,025S066 APACHE CITY (RWIS),http://www.cotrip.org/images/ws/camera?imageURL=238,37.857655,-104.828682,3697,320,240,0,0
715,I-80 EB @ 300 W / MP 122.57,http://www.commuterlink.utah.gov/1_devices/aux53.jpeg,40.71621,-111.898773,3698,320,240,0,0
716,I-80 EB @ SR-36 / Exit 99 / MP 98.6,http://www.commuterlink.utah.gov/1_devices/aux15420.jpeg,40.690674,-112.262818,3699,320,240,0,0
717,I-80 EB @ Wendover / MP -1.4,http://www.commuterlink.utah.gov/1_devices/aux14607.jpeg,40.738064,-114.047103,3700,320,240,0,0
718,I-80 WB @ 1300 E / MP 125.1,http://www.commuterlink.utah.gov/1_devices/aux14831.jpeg,40.720939,-111.854038,3701,320,240,0,0
719,025S146 GARDEN OF THE GODS,http://www.cotrip.org/images/ws/camera?imageURL=252,-35.1391291,138.4738484,3702,704,480,0,0
720,025S146 GARDEN OF THE GODS,http://www.cotrip.org/images/ws/camera?imageURL=253,38.896011,-104.830177,3703,704,480,0,0
721,I-80 WB @ 700 E / SR-71 / MP 124.1,http://www.commuterlink.utah.gov/1_devices/aux55.jpeg,40.720432,-111.872972,3704,320,240,0,0
722,I-80 WB @ State St. / US-89 / MP 123.28,http://www.commuterlink.utah.gov/1_devices/aux147.jpeg,40.72073,-111.890304,3705,320,240,0,0
723,I-84 / Weber Canyon @ Power Plant / MP 89.25,http://www.commuterlink.utah.gov/1_devices/aux15424.jpeg,41.137161,-111.881873,3706,320,240,0,0
724,Independence Ave @ 820 N - Provo,http://www.commuterlink.utah.gov/1_devices/aux15306.jpeg,40.245208,-111.690345,3707,320,240,0,0
725,Legacy Pkwy. / SR-67 NB @ 1200 N / MP 5.42,http://www.commuterlink.utah.gov/1_devices/aux14761.jpeg,40.900535,-111.916558,3708,320,240,0,0
726,Legacy Pkwy. / SR-67 NB @ 1275 N / MP 8.3,http://www.commuterlink.utah.gov/1_devices/aux14768.jpeg,40.933681,-111.8965,3709,320,240,0,0
727,Legacy Pkwy. / SR-67 NB @ 1550 S / MP 9.8,http://www.commuterlink.utah.gov/1_devices/aux14770.jpeg,40.955439,-111.89633,3710,320,240,0,0
728,Legacy Pkwy. / SR-67 NB @ 1900 N / MP 9.16,http://www.commuterlink.utah.gov/1_devices/aux14769.jpeg,40.94456,-111.89633,3711,320,240,0,0
729,Legacy Pkwy. / SR-67 NB @ 1900 S / MP 3.16,http://www.commuterlink.utah.gov/1_devices/aux14758.jpeg,40.870235,-111.935,3712,320,240,0,0
730,Legacy Pkwy. / SR-67 NB @ 200 S / MP 11.4,http://www.commuterlink.utah.gov/1_devices/aux14772.jpeg,40.976047,-111.899037,3713,320,240,0,0
731,Legacy Pkwy. / SR-67 NB @ 2500 S / MP 2.5,http://www.commuterlink.utah.gov/1_devices/aux14757.jpeg,40.863818,-111.938826,3714,320,240,0,0
732,Legacy Pkwy. / SR-67 NB @ 300 N / MP 1.52,http://www.commuterlink.utah.gov/1_devices/aux14755.jpeg,40.85141,-111.939505,3715,320,240,0,0
733,Legacy Pkwy. / SR-67 NB @ 400 N / MP 4.7,http://www.commuterlink.utah.gov/1_devices/aux14760.jpeg,40.893395,-111.920637,3716,320,240,0,0
734,Legacy Pkwy. / SR-67 NB @ 800 N / MP 7.8,http://www.commuterlink.utah.gov/1_devices/aux14767.jpeg,40.927732,-111.89752,3717,320,240,0,0
735,Legacy Pkwy. / SR-67 NB @ 900 N / MP 2.14,http://www.commuterlink.utah.gov/1_devices/aux14756.jpeg,40.857699,-111.940015,3718,320,240,0,0
736,Legacy Pkwy. / SR-67 NB @ 900 W / MP 7,http://www.commuterlink.utah.gov/1_devices/aux14764.jpeg,40.916173,-111.89956,3719,320,240,0,0
737,Legacy Pkwy. / SR-67 NB @ Center St. / MP 1,http://www.commuterlink.utah.gov/1_devices/aux14754.jpeg,40.841419,-111.939841,3720,320,240,0,0
738,Legacy Pkwy. / SR-67 NB @ Parrish Ln. / SR-105 / MP 7.45,http://www.commuterlink.utah.gov/1_devices/aux14765.jpeg,40.921442,-111.89939,3721,320,240,0,0
739,Legacy Pkwy. / SR-67 SB @ 250 N / US-89 / MP 12.1,http://www.commuterlink.utah.gov/1_devices/aux14773.jpeg,40.983486,-111.901939,3722,320,240,0,0
740,Legacy Pkwy. / SR-67 SB @ 500 S / MP 4,http://www.commuterlink.utah.gov/1_devices/aux14759.jpeg,40.883536,-111.937126,3723,320,240,0,0
741,Legacy Pkwy. / SR-67 SB @ Glover Ln. / MP 10.5,http://www.commuterlink.utah.gov/1_devices/aux14771.jpeg,40.964618,-111.901089,3724,320,240,0,0
742,Legacy Pkwy. / SR-67 SB @ Pages Ln. / MP 6,http://www.commuterlink.utah.gov/1_devices/aux14762.jpeg,40.906484,-111.918258,3725,320,240,0,0
743,Legacy Pkwy. / SR-67 SB @ Parrish Ln. / SR-105 / MP 7.4,http://www.commuterlink.utah.gov/1_devices/aux14766.jpeg,40.920794,-111.905286,3726,320,240,0,0
744,Main St @ 1300 S - Richfield,http://www.commuterlink.utah.gov/1_devices/aux14492.jpeg,38.749405,-112.089216,3727,320,240,0,0
745,Main St @ 300 N - Richfield,http://www.commuterlink.utah.gov/1_devices/aux14631.jpeg,38.77213,-112.085537,3728,320,240,0,0
746,Main St @ 400 E - Moab (Local),http://www.commuterlink.utah.gov/1_devices/aux14634.jpeg,38.557453,-109.542777,3729,320,240,0,0
747,Main St @ Center St - Moab (Local),http://www.commuterlink.utah.gov/1_devices/aux14632.jpeg,38.573225,-109.55084,3730,320,240,0,0
748,Main St @ Kawakami Dr/600 W - AFK,http://www.commuterlink.utah.gov/1_devices/aux15355.jpeg,40.37687,-111.814031,3731,320,240,0,0
749,Main St. / SR-36 @ 1000 N,http://www.commuterlink.utah.gov/1_devices/aux15005.jpeg,40.548969,-112.29731,3732,320,240,0,0
750,Main St. / US-40 @ 100 S / MP 143.4,http://www.commuterlink.utah.gov/1_devices/aux15305.jpeg,40.454041,-109.545503,3733,320,240,0,0
751,Main St. / US-40 @ US-189 / 1200 S / MP 17.94,http://www.commuterlink.utah.gov/1_devices/aux15437.jpeg,40.493055,-111.413712,3734,320,240,0,0
752,Main St. / US-40 @ Vernal Ave. / US-191 / MP 144.3,http://www.commuterlink.utah.gov/1_devices/aux15304.jpeg,40.455783,-109.528538,3735,320,240,0,0
753,Pleasant Grove Blvd @ 2000 W - PLG,http://www.commuterlink.utah.gov/1_devices/aux15367.jpeg,40.35511,-111.763427,3736,320,240,0,0
754,Provo Canyon Rd. / US-189 EB @ Alpine Scenic Hwy. / SR-92 / MP 14.25,http://www.commuterlink.utah.gov/1_devices/aux15045.jpeg,40.364262,-111.557617,3737,320,240,0,0
755,Provo Canyon Rd. / US-189 EB @ Canyon Glen Park / MP 9.94,http://www.commuterlink.utah.gov/1_devices/aux15041.jpeg,40.328527,-111.624062,3738,320,240,0,0
756,Provo Canyon Rd. / US-189 EB @ Canyon View Park / MP 8.46,http://www.commuterlink.utah.gov/1_devices/aux15040.jpeg,40.316243,-111.651972,3739,320,240,0,0
757,Provo Canyon Rd. / US-189 EB @ Milepost 12.22,http://www.commuterlink.utah.gov/1_devices/aux15043.jpeg,40.347858,-111.593309,3740,320,240,0,0
758,Provo Canyon Rd. / US-189 EB @ Milepost 17.13,http://www.commuterlink.utah.gov/1_devices/aux15048.jpeg,40.401425,-111.533387,3741,320,240,0,0
759,Provo Canyon Rd. / US-189 WB @ Meadow Dr. / MP 16.26,http://www.commuterlink.utah.gov/1_devices/aux15047.jpeg,40.389093,-111.545068,3742,320,240,0,0
760,Redwood Rd. / SR-68 @ 2100 N / Mountain View Corridor,http://www.commuterlink.utah.gov/1_devices/aux15532.jpeg,40.413001,-111.923066,3743,320,240,0,0
761,Redwood Rd. / SR-68 @ 2100 S,http://www.commuterlink.utah.gov/1_devices/aux14931.jpeg,40.726515,-111.939003,3744,320,240,0,0
762,Redwood Rd. / SR-68 @ 4700 S / SR-266,http://www.commuterlink.utah.gov/1_devices/aux15542.jpeg,40.667603,-111.938775,3745,320,240,0,0
763,Riverside Dr @ River Rd - STG (Local),http://www.commuterlink.utah.gov/1_devices/aux14926.jpeg,37.088716,-113.557049,3746,320,240,0,0
764,South Campus Dr. / SR-282 @ 1725 E,http://www.commuterlink.utah.gov/1_devices/aux14964.jpeg,40.759428,-111.843042,3747,320,240,0,0
765,South Campus Dr. / SR-282 @ Mario Capecchi Dr.,http://www.commuterlink.utah.gov/1_devices/aux14965.jpeg,40.76239,-111.835635,3748,320,240,0,0
766,South Temple St. @ 700 E / I St.,http://www.commuterlink.utah.gov/1_devices/aux15526.jpeg,40.769359,-111.87108,3749,320,240,0,0
767,Southern Pkwy. / SR-7 @ Milepost 1.67,http://www.commuterlink.utah.gov/1_devices/aux15536.jpeg,37.01013,-113.592842,3750,320,240,0,0
768,Southern Pkwy. / SR-7 @ Milepost 5.14,http://www.commuterlink.utah.gov/1_devices/aux15537.jpeg,37.00112,-113.540251,3751,320,240,1,0
769,I25 SH7,http://www.cotrip.org/images/ws/camera?imageURL=13,40.00027,-104.981111,3752,800,450,0,0
770,Southern Pkwy. / SR-7 @ Milepost 7.24,http://www.commuterlink.utah.gov/1_devices/aux15539.jpeg,37.006825,-113.499595,3753,320,240,0,0
771,025S229 SH7 (RWIS),http://www.cotrip.org/images/ws/camera?imageURL=216,40.000168,-104.981522,3754,800,450,0,0
772,Southern Pkwy. / SR-7 EB @ Airport Pkwy. / MP 7.7,http://www.commuterlink.utah.gov/1_devices/aux15540.jpeg,37.010662,-113.493683,3755,320,240,0,0
773,025N242 ST. VRAIN,http://www.cotrip.org/images/ws/camera?imageURL=78,40.175678,-104.979507,3756,256,192,0,0
774,Southern Pkwy. / SR-7 EB @ River Rd. / Hwy 5 / MP 3.76,http://www.commuterlink.utah.gov/1_devices/aux15534.jpeg,36.996661,-113.560267,3757,320,240,0,0
775,025N242 ST. VRAIN,http://www.cotrip.org/images/ws/camera?imageURL=293,40.175678,-104.979507,3758,256,192,0,0
776,Southern Pkwy. / SR-7 WB @ Airport Pkwy. / MP 7.68,http://www.commuterlink.utah.gov/1_devices/aux15541.jpeg,37.01367,-113.495861,3759,320,240,0,0
777,I-25 @ S OF SH-66 MM 241.7,http://www.cotrip.org/images/camera?imageURL=remote/TOCCCTV025N242-S-OF-SH66-N.jpg,40.183231,-104.97982,3760,352,240,0,0
778,I-25 @ S OF SH-66 MM 241.7,http://www.cotrip.org/images/camera?imageURL=remote/TOCCCTV025N242-S-OF-SH66-S.jpg,40.183231,-104.97982,3761,352,240,0,0
779,Southern Pkwy. / SR-7 WB @ River Rd. / Hwy 5 / MP 3.76,http://www.commuterlink.utah.gov/1_devices/aux15535.jpeg,37.000187,-113.560267,3762,320,240,0,0
780,I-25 @ S OF SH 66 MM 242.7,http://www.cotrip.org/images/camera?imageURL=remote/TOCCCTV025S242-S-OF-SH66-N.jpg,40.189976,-104.980568,3763,352,240,0,0
781,I25 BERTHOUD,http://www.cotrip.org/images/ws/camera?imageURL=77,40.321446,-104.980076,3764,704,480,0,0
782,025S251 BERTHOUD (RWIS),http://www.cotrip.org/images/ws/camera?imageURL=259,40.320969,-104.980774,3765,704,480,0,0
783,I25 WELLINGTON,http://www.cotrip.org/images/ws/camera?imageURL=45,40.682405,-105.000475,3766,704,480,0,0
784,025N277 WELLINGTON (RWIS),http://www.cotrip.org/images/ws/camera?imageURL=292,40.682922,-104.999725,3767,704,480,1,0
785,I70 UTAH STATE LINE,http://www.cotrip.org/images/ws/camera?imageURL=178,39.184272,-109.026406,3768,704,480,0,0
786,070W001 UTAH STATE LINE (RWIS),http://www.cotrip.org/images/ws/camera?imageURL=273,39.189884,-109.039406,3769,704,480,0,0
787,I-70 @ LOMA HWY139 OVERPASS,http://www.cotrip.org/images/camera?imageURL=remote/TOCCCTV070W015-LOMA-N.jpg,39.177975,-108.813049,3770,352,240,0,0
788,I-70 @ LOMA HWY139 OVERPASS,http://www.cotrip.org/images/camera?imageURL=remote/TOCCCTV070W015-LOMA-E.jpg,39.177975,-108.813049,3771,352,240,0,0
789,SR-145 Pioneer Xing @ 1020 W - AFK,http://www.commuterlink.utah.gov/1_devices/aux15356.jpeg,40.376849,-111.824972,3772,320,240,0,0
790,070E044 PALISADE (RWIS),http://www.cotrip.org/images/ws/camera?imageURL=192,39.125168,-108.321854,3773,704,480,0,0
791,SR-145 Pioneer Xing @ 10600 W - SSP,http://www.commuterlink.utah.gov/1_devices/aux15346.jpeg,40.369544,-111.910395,3774,320,240,0,0
792,070E044 PALISADE (RWIS),http://www.cotrip.org/images/ws/camera?imageURL=193,39.125168,-108.321854,3775,704,480,0,0
793,SR-145 Pioneer Xing @ 1100 W - LHI,http://www.commuterlink.utah.gov/1_devices/aux15350.jpeg,40.374489,-111.867036,3776,320,240,0,0
794,070W054 DEBEQUE,http://www.cotrip.org/images/ws/camera?imageURL=281,39.23901,-108.266327,3777,704,480,0,0
795,SR-145 Pioneer Xing @ 1700 W - LHI,http://www.commuterlink.utah.gov/1_devices/aux15348.jpeg,40.375902,-111.87675,3778,320,240,0,0
796,070W054 DEBEQUE,http://www.cotrip.org/images/ws/camera?imageURL=282,39.23901,-108.266327,3779,704,480,0,0
797,070E097 SILT,http://www.cotrip.org/images/ws/camera?imageURL=271,39.543392,-107.67112,3780,704,480,0,0
798,SR-145 Pioneer Xing @ 2300 W - LHI,http://www.commuterlink.utah.gov/1_devices/aux15347.jpeg,40.376079,-111.886464,3781,320,240,1,0
799,070E097 SILT,http://www.cotrip.org/images/ws/camera?imageURL=272,39.543392,-107.67112,3782,704,480,0,0
800,SR-145 Pioneer Xing @ 300 E - LHI,http://www.commuterlink.utah.gov/1_devices/aux15352.jpeg,40.373606,-111.844429,3783,320,240,0,0
801,I70 CANYON CREEK WB,http://www.cotrip.org/images/ws/camera?imageURL=91,39.574141,-107.451725,3784,704,480,0,0
802,SR-145 Pioneer Xing @ 500 W - LHI,http://www.commuterlink.utah.gov/1_devices/aux15351.jpeg,40.373606,-111.857234,3785,320,240,0,0
803,070W109 CANYON CREEK WB (RWIS),http://www.cotrip.org/images/ws/camera?imageURL=269,39.57394,-107.452286,3786,704,480,1,0
804,SR-145 Pioneer Xing @ Center St - LHI,http://www.commuterlink.utah.gov/1_devices/aux15428.jpeg,40.373083,-111.849165,3787,320,240,0,0
805,070E118 NO NAME TUNNEL,http://www.cotrip.org/images/ws/camera?imageURL=279,39.563038,-107.298645,3788,704,480,0,0
806,070E118 NO NAME TUNNEL,http://www.cotrip.org/images/ws/camera?imageURL=280,39.563038,-107.298645,3789,704,480,0,0
807,SR-145 Pioneer Xing @ Millpond Rd - LHI,http://www.commuterlink.utah.gov/1_devices/aux15354.jpeg,40.377195,-111.833118,3790,320,240,0,0
808,SR-145 Pioneer Xing @ Redwood Rd - SSP,http://www.commuterlink.utah.gov/1_devices/aux15345.jpeg,40.369468,-111.916339,3791,320,240,0,0
809,070E129 BAIR RANCH,http://www.cotrip.org/images/ws/camera?imageURL=298,39.6143,-107.140312,3792,704,480,0,0
810,070W155 WOLCOTT (RWIS),http://www.cotrip.org/images/ws/camera?imageURL=184,39.700851,-106.683609,3793,704,480,0,0
811,SR-201 @ 1600 W / MP 15.47,http://www.commuterlink.utah.gov/1_devices/aux75.jpeg,40.727238,-111.934373,3794,320,240,0,0
812,070W155 WOLCOTT (RWIS),http://www.cotrip.org/images/ws/camera?imageURL=185,39.700851,-106.683609,3795,704,480,0,0
813,070E171 DOWD JCT. (RWIS),http://www.cotrip.org/images/ws/camera?imageURL=30,39.607983,-106.448807,3796,704,480,0,0
814,070E171 DOWD JCT. (RWIS),http://www.cotrip.org/images/ws/camera?imageURL=31,39.607983,-106.448807,3797,704,480,0,0
815,SR-201 @ 800 W / MP 16.7,http://www.commuterlink.utah.gov/1_devices/aux79.jpeg,40.720376,-111.914569,3798,320,240,0,0
816,SR-201 @ 8400 W / SR-111 / MP 7.2,http://www.commuterlink.utah.gov/1_devices/aux257.jpeg,40.715306,-112.091736,3799,320,240,0,0
817,SR-201 @ 900 W / MP 16.6,http://www.commuterlink.utah.gov/1_devices/aux77.jpeg,40.728128,-111.918832,3800,320,240,0,0
818,SR-209 @ Wasatch Blvd - CWH,http://www.commuterlink.utah.gov/1_devices/aux14895.jpeg,40.577961,-111.802998,3801,320,240,0,0
819,SR-209/SR210 Little Cottonwood,http://www.commuterlink.utah.gov/1_devices/aux14604.jpeg,40.571864,-111.776137,3802,320,240,0,0
820,SR-36 @ Erda Way / 4100 N,http://www.commuterlink.utah.gov/1_devices/aux15007.jpeg,40.599861,-112.293527,3803,320,240,0,0
821,SR-36 @ SR-138 / Mills Jct. / Center St.,http://www.commuterlink.utah.gov/1_devices/aux15003.jpeg,40.653438,-112.288767,3804,320,240,0,0
822,SR-36 @ Village Blvd.,http://www.commuterlink.utah.gov/1_devices/aux15004.jpeg,40.627931,-112.290476,3805,320,240,0,0
823,SR-68 Redwood @ Camp Williams,http://www.commuterlink.utah.gov/1_devices/aux15038.jpeg,40.442214,-111.933095,3806,320,240,0,0
824,SR-68 Redwood @ SR-73/Main St - SSP,http://www.commuterlink.utah.gov/1_devices/aux15039.jpeg,40.387358,-111.916492,3807,320,240,0,0
825,SR-68 Redwood Rd @ 14400 S - BLF,http://www.commuterlink.utah.gov/1_devices/aux15037.jpeg,40.489504,-111.940031,3808,320,240,0,0
826,SR-68 Redwood Rd @ 5400 S - TAY,http://www.commuterlink.utah.gov/1_devices/aux2123.jpeg,40.653206,-111.939035,3809,320,240,0,0
827,St George Blvd @ 1000 E - STG,http://www.commuterlink.utah.gov/1_devices/aux14914.jpeg,37.109783,-113.562103,3810,320,240,0,0
828,St George Blvd @ 400 E - STG,http://www.commuterlink.utah.gov/1_devices/aux14520.jpeg,37.10966,-113.574779,3811,320,240,0,0
829,St George Blvd @ 700 E - STG,http://www.commuterlink.utah.gov/1_devices/aux14913.jpeg,37.10966,-113.568452,3812,320,240,0,0
830,St George Blvd @ Main St - STG,http://www.commuterlink.utah.gov/1_devices/aux14918.jpeg,37.109781,-113.583285,3813,320,240,0,0
831,State St. / US-89 / I-15 SB Exit @ 2100 N / Mountain View Corridor,http://www.commuterlink.utah.gov/1_devices/aux15531.jpeg,40.412953,-111.872692,3814,320,240,0,0
832,State St. / US-89 SB @ 11400 S / MP 363.38 WB,http://www.commuterlink.utah.gov/1_devices/aux15495.jpeg,40.544433,-111.891166,3815,320,240,0,0
833,Sunset Blvd @ Valley View - STG,http://www.commuterlink.utah.gov/1_devices/aux15092.jpeg,37.124614,-113.602568,3816,320,240,0,0
834,Sunset Blvd @ Westridge Dr - STG,http://www.commuterlink.utah.gov/1_devices/aux15093.jpeg,37.1226,-113.616277,3817,320,240,0,0
835,Univ Ave @ Bulldog Blvd - Provo,http://www.commuterlink.utah.gov/1_devices/aux14296.jpeg,40.250594,-111.658628,3818,320,240,0,0
836,Univ Ave @ Center St - Provo,http://www.commuterlink.utah.gov/1_devices/aux14271.jpeg,40.233706,-111.658762,3819,320,240,0,0
837,Univ Pkwy @ Geneva Rd - Orem,http://www.commuterlink.utah.gov/1_devices/aux14961.jpeg,40.275142,-111.727502,3820,320,240,0,0
838,University Ave @ 300 S - Provo,http://commuterlink.utah.gov/1_devices/aux14985.jpeg,40.229682,-111.658709,3821,320,240,0,0
839,University Ave @ 500 N - Provo,http://commuterlink.utah.gov/1_devices/aux14272.jpeg,40.240392,-111.658643,3822,320,240,0,0
840,University Ave @ 800 N - Provo,http://commuterlink.utah.gov/1_devices/aux14295.jpeg,40.244337,-111.658628,3823,320,240,0,0
841,University Ave @ 920 S - Provo,http://commuterlink.utah.gov/1_devices/aux14269.jpeg,40.221743,-111.658858,3824,320,240,0,0
842,US-189 Deer Creek Dam - WA Co 17.86,http://www.commuterlink.utah.gov/1_devices/aux15108.jpeg,40.405456,-111.523703,3825,320,240,0,0
843,US-40 @ River Rd. / SR-32 / MP 13.7,http://www.commuterlink.utah.gov/1_devices/aux15382.jpeg,40.557686,-111.425765,3826,320,240,0,0
844,US-6 @ 2550 E - Spanish Fork,http://www.commuterlink.utah.gov/1_devices/aux14635.jpeg,40.101313,-111.611634,3827,320,240,0,0
845,US-6 @ 3450 E - SPF 177.09,http://www.commuterlink.utah.gov/1_devices/aux242.jpeg,40.091849,-111.603003,3828,320,240,0,0
846,US-6 @ 800 N - Spanish Fork,http://commuterlink.utah.gov/1_devices/aux240.jpeg,40.12019779,-111.6400924,3829,320,240,0,0
847,US-6 @ Billies Mtn - UT 186.8 (Local),http://www.commuterlink.utah.gov/1_devices/aux215.jpeg,39.999144,-111.485139,3830,320,240,0,0
848,US-6 @ Center St - SPF 174.85,http://www.commuterlink.utah.gov/1_devices/aux241.jpeg,40.108257,-111.634041,3831,320,240,0,0
849,US-6 @ US-89 - UT Co 187.47 (Local),http://www.commuterlink.utah.gov/1_devices/aux243.jpeg,39.993402,-111.468457,3832,320,240,0,0
850,US-89 @ 3000 N / SR-193,http://www.commuterlink.utah.gov/1_devices/aux15100.jpeg,41.10747,-111.909013,3833,320,240,0,0
851,US-89 @ 6300 S / MP 407.72,http://www.commuterlink.utah.gov/1_devices/aux15103.jpeg,41.147477,-111.931674,3834,320,240,0,0
852,US-89 @ Harrison Blvd. / 1550 E / SR-203,http://www.commuterlink.utah.gov/1_devices/aux15521.jpeg,41.154728,-111.93965,3835,320,240,0,0
