cameraid,name,url,latitude,longitude,last_width,last_height,mhash
1,VT,http://www.hazecam.net/images/main/burlington_right.jpg,44.478739,-73.19164,500,250,1
2,Anthem school,http://wwc.instacam.com/instacamimg/PHNAS/PHNAS_l.jpg,33.2765,-112.1872,1280,720,2
4,College of the Canyons,http://wwc.instacam.com/instacamimg/CLLCN/CLLCN_l.jpg,34.4044820734014,-118.569055939865,1280,1024,4
5,Borrego Springs HS,http://wwc.instacam.com/instacamimg/BORYO/BORYO_l.jpg,33.2648176,-116.3834183,1280,720,5
8,KOAA News First Cams,http://wwc.instacam.com/instacamimg/KOAAT/KOAAT_l.jpg,38.2886723,-104.6237902,1280,720,8
10,Dolphins Stadium,http://wwc.instacam.com/instacamimg/PROPL/PROPL_l.jpg,25.9484,-80.2479,1280,720,10
11,Cypress Bay HS,http://wwc.instacam.com/instacamimg/WSTNN/WSTNN_l.jpg,26.0596,-80.4146,1280,720,11
13,WeatherBug Cam: Northern Illinois University,http://wwc.instacam.com/instacamimg/DLKLB/DLKLB_l.jpg,41.935416,-88.7710424,1280,720,13
15,Beecher ES,http://wwc.instacam.com/instacamimg/BCHRS/BCHRS_l.jpg,41.34059,-87.6214286,640,480,15
16,WSIL TV 3,http://wwc.instacam.com/instacamimg/WSILT/WSILT_l.jpg,37.7465856027811,-89.052629882209,1280,720,16
17,Western Intermediate School,http://wwc.instacam.com/instacamimg/RSSVL/RSSVL_l.jpg,40.436786195693,-86.2436611148834,640,480,17
18,Tri-County M - SHS,http://wwc.instacam.com/instacamimg/WLCTT/WLCTT_l.jpg,40.7265,-86.9894,1280,720,18
19,Indiana - Notre Dame Dome And Basilica,http://www.nd.edu/~webcam/domecam.jpg,41.7024946940213,-86.2378195221901,1280,720,19
20,Fort Scott MS,http://wwc.instacam.com/instacamimg/FRTSC/FRTSC_l.jpg,37.8216,-94.7147,640,480,20
21,WeatherBug Cam: Pittsburg Middle School,http://wwc.instacam.com/instacamimg/PTSBG/PTSBG_l.jpg,37.4194954,-94.7048337,640,480,21
22,WeatherBug Cam: Parsons High School,http://wwc.instacam.com/instacamimg/PARNS/PARNS_l.jpg,37.3321388,-95.2816702,640,480,22
23,WeatherBug Headquarters,http://wwc.instacam.com/instacamimg/AWSHQ/AWSHQ_l.jpg,39.2009241,-77.2630048,1280,720,23
24,St. Marys ES,http://wwc.instacam.com/instacamimg/ANNAS/ANNAS_l.jpg,38.9673,-76.6101,1280,720,24
25,Northern HS,http://wwc.instacam.com/instacamimg/ACDNT/ACDNT_l.jpg,39.5894,-79.2309,1280,720,25
26,Frostburg State University,http://wwc.instacam.com/instacamimg/FRSTB/FRSTB_l.jpg,39.6421,-78.9125,1280,720,26
27,Crestwood Middle School,http://wwc.instacam.com/instacamimg/FRDCM/FRDCM_l.jpg,39.3934893,-77.4229503,1280,720,27
29,Glenelg Country School,http://wwc.instacam.com/instacamimg/GLNLG/GLNLG_l.jpg,39.2597,-77.0126,640,480,29
30,The Greens,http://wwc.instacam.com/instacamimg/IJAMS/IJAMS_s.jpg,39.3078834358581,-110.83256040485,640,360,30
31,Middletown Valley,http://wwc.instacam.com/instacamimg/MIDTN/MIDTN_l.jpg,39.4309346,-77.5452658,1280,720,31
32,Summit Ridge,http://wwc.instacam.com/instacamimg/MTAIR/MTAIR_l.jpg,39.4072,-77.214,1280,720,32
33,Cecil Community College,http://wwc.instacam.com/instacamimg/NRTHU/NRTHU_l.jpg,39.5351,-75.894,1280,720,33
34,Montcalm Area ISD (WILX TV 10 WeatherNet),http://wwc.instacam.com/instacamimg/STNTN/STNTN_l.jpg,43.2893,-85.0595,1280,720,34
36,Cardinal Gibbons HS,http://wwc.instacam.com/instacamimg/RALGH/RALGH_l.jpg,35.8028563343022,-78.7287306595131,1280,720,36
37,University of N Carolina at Charlotte,http://wwc.instacam.com/instacamimg/CHRLG/CHRLG_l.jpg,35.3076851551042,-80.7343507976206,1280,720,37
38,Harrison Weather Center,http://wwc.instacam.com/instacamimg/HRSSN/HRSSN_l.jpg,38.8978201078982,-94.7562450439,640,480,38
39,Vineland HS North,http://wwc.instacam.com/instacamimg/VINBE/VINBE_l.jpg,39.4655,-74.9652,1280,720,39
41,Virgin Valley HS,http://wwc.instacam.com/instacamimg/MSQUT/MSQUT_l.jpg,36.4374,-114.7288,1280,720,41
42,Pahrump Valley HS,http://wwc.instacam.com/instacamimg/PHRMP/PHRMP_l.jpg,36.2424,-116.1606,1280,720,42
43,Red Rock Visitor Center,http://wwc.instacam.com/instacamimg/LSVRR/LSVRR_l.jpg,36.168,-115.3691,1280,720,43
44,Monroe Woodbury Computer Center,http://wwc.instacam.com/instacamimg/HRRMN/HRRMN_l.jpg,41.3005,-74.1249,1280,1024,44
46,Hampton Bays ES,http://wwc.instacam.com/instacamimg/HAMPT/HAMPT_l.jpg,40.9223,-72.637,640,480,46
51,Frenchglen ES,http://wwc.instacam.com/instacamimg/FRNCH/FRNCH_l.jpg,43.562,-119.0786,640,480,51
52,Mount Pleasant Jr Sr HS,http://wwc.instacam.com/instacamimg/MNTPL/MNTPL_l.jpg,40.2022,-79.6099,1280,720,52
53,Punxsutawney Weather Discovery Center,http://wwc.instacam.com/instacamimg/PNXST/PNXST_l.jpg,40.9445,-78.9798,640,480,53
54,Bradford Area SD,http://wwc.instacam.com/instacamimg/BRDFD/BRDFD_l.jpg,41.8623,-78.6373,640,480,54
55,West Perry SD,http://wwc.instacam.com/instacamimg/LYSVL/LYSVL_l.jpg,40.4068,-77.2925,1280,800,55
57,Mifflinburg ASD,http://wwc.instacam.com/instacamimg/MFFLN/MFFLN_l.jpg,40.9478,-77.011,640,480,57
58,College Misericordia,http://wwc.instacam.com/instacamimg/DALLS/DALLS_l.jpg,41.2711,-75.9996,1280,720,58
60,Deadwood Elks Lodge 508,http://wwc.instacam.com/instacamimg/DEDWD/DEDWD_l.jpg,44.3648,-103.7357,1280,720,60
61,Pine Ridge Hospital,http://wwc.instacam.com/instacamimg/PNRDG/PNRDG_l.jpg,43.0243,-102.5352,1280,720,61
62,Spearfish HS,http://wwc.instacam.com/instacamimg/SPRFH/SPRFH_l.jpg,44.5004376976028,-103.861985457147,640,480,62
64,Adventure Science Center,http://wwc.instacam.com/instacamimg/NSHV1/NSHV1_l.jpg,36.1468274447837,-86.7753335349529,1280,720,64
65,WTVC-TV,http://wwc.instacam.com/instacamimg/WTVCT/WTVCT_l.jpg,35.0673,-85.25,640,480,65
66,The Lamplighter School,http://wwc.instacam.com/instacamimg/LAMPL/LAMPL_l.jpg,32.7673,-96.7776,640,480,66
68,Jesuit College Prep School,http://wwc.instacam.com/instacamimg/DLSL1/DLSL1_l.jpg,32.7673,-96.7776,1280,720,68
69,Camp Sweeney,http://wwc.instacam.com/instacamimg/WHTSB/WHTSB_l.jpg,33.7020837,-96.9954671,1280,720,69
70,"'Moody Gardens, Inc.'",http://wwc.instacam.com/instacamimg/GLVST/GLVST_l.jpg,37.4274582925302,-113.00382503018,1280,720,70
71,KAVU-TV,http://wwc.instacam.com/instacamimg/KAVUT/KAVUT_l.jpg,28.7774,-97.0266,640,480,71
73,Zion Canyon Theatre,http://wwc.instacam.com/instacamimg/ZPRNG/ZPRNG_l.jpg,0,0,1280,720,73
74,Bull Run ES,http://wwc.instacam.com/instacamimg/BULRN/BULRN_l.jpg,38.8195,-77.4557,1280,720,74
76,Shenandoah National Park,http://wwc.instacam.com/instacamimg/LRAY1/LRAY1_l.jpg,38.646,-78.4812,1280,720,76
77,WDBJ,http://wwc.instacam.com/instacamimg/RNKCS/RNKCS_l.jpg,37.2979,-79.9877,1280,720,77
78,Auburn Middle School,http://wwc.instacam.com/instacamimg/RNRMS/RNRMS_l.jpg,37.0579,-80.4363,1280,720,78
79,WCYB-TV5,http://wwc.instacam.com/instacamimg/WCYBT/WCYBT_l.jpg,36.6138,-82.1762,640,480,79
80,Institute For Advanced Learning and Research,http://wwc.instacam.com/instacamimg/DNVAL/DNVAL_l.jpg,36.6035,-79.3762,640,480,80
82,Wishkah Valley School,http://wwc.instacam.com/instacamimg/ABEDN/ABEDN_l.jpg,47.117572487344,-123.771196192551,640,480,82
83,GOES Western US SECTOR Visible Image,http://www.goes.noaa.gov/GIFS/WCVS.JPG,52.74959372,-155.5664063,640,480,83
86,"'Viseu, Portugal'",http://abss.no-ip.info/viseu.jpg,40.6565861,-7.91247120000003,352,288,86
87,Granite Island Light Station Cam 9 (ptz),http://www.graniteisland.com/webcams/cam1_axiscam9.jpg,46.719,-87.407,352,240,87
88,Eternal Sunset,http://summerhome.com/baycam/image.jpg,41.868663,-70.008607,704,480,88
89,Alaska DMV cam,https://online.dmv.alaska.gov/DMVWebCams/Bensons/benson.jpg,61.1931992608984,-149.907439588068,640,480,89
90,"Forsyth County-Greensboro-Winston Salem-High Point, NC",http://forsyth.cc/EAP/Images/hazecam/NC_1.JPG,53.5534079127236,9.99741664531252,480,360,90
92,,http://wc2.dartmouth.edu/jpg/image.jpg,43.7055592,-72.2888455,640,480,92
93,,http://148.61.151.202/jpg/image.jpg,-27.0833103161573,27.4380982961839,640,480,93
94,,http://148.61.49.119/jpg/image.jpg,37.4129332,-4.49610080000002,640,480,94
95,,http://131.188.69.22/jpg/image.jpg?videos=one,56.3863622764627,-94.3173778259,800,500,95
96,,http://195.113.207.238/jpg/image.jpg,49.6063946548523,15.5788979362458,640,480,96
97,,http://85.199.1.130/jpg/image.jpg,41.7019520096804,44.8180950982971,704,576,97
98,,http://148.61.49.118/jpg/image.jpg,42.778702,-86.074992,640,480,98
99,,http://webcam-2.hartford.edu/jpg/image.jpg,41.7970568,-72.7200366,640,480,99
102,,http://gallerycam.ucsd.edu/jpg/image.jpg,32.8826707,-117.2351222,704,480,102
103,,http://webcam01.ecn.purdue.edu/jpg/image.jpg,32.8779104,-117.2068,640,480,103
104,,http://webcam5.bowdoin.edu:4200/jpg/image.jpg,43.9067324,-69.9637933,1920,1080,104
105,,http://flightcam1.pr.erau.edu/jpg/image.jpg,34.6167306,-112.4497282,1920,1080,105
107,,https://images.webcams.travel/original/1220423291.jpg ,58.3800548,26.7225267,400,224,107
108,,http://150.214.222.100/jpg/image.jpg?imagepath=/mpeg4/video.sdp,40.5049098700011,-4.30458935838999,1280,960,108
110,,http://webcam.gordon.edu/jpg/image.jpg,0,0,480,270,110
111,,http://lioncam1.lmu.edu/jpg/image.jpg,39.9724829814414,-105.357062933984,1920,1080,111
112,http://hncam1.hn.psu.edu/axis-cgi/jpg/image.cgi?resolution=320x240,http://hncam1.hn.psu.edu/axis-cgi/jpg/image.cgi?resolution=640x480,-34.6625849972,-58.364881741,640,480,112
113,,http://www.bartboos.com/image.jpg,0,0,768,432,113
114,,http://rachleff.org/axis-cgi/jpg/image.cgi?camera=1&amp,0,0,-121,328,114
126,I-90 Rocky Canyon,http://images.wsdot.wa.gov/rweather/rocky_medium.jpg,47.089,-120.743,320,261,126
149,3rd / Washington,http://images.wsdot.wa.gov/spokane/i90/cctv029.jpg,47.653496,-117.417976,352,280,149
156,I-82 Outlook,http://images.wsdot.wa.gov/rweather/Medium_Outlook.jpg,46.33,-120.094,320,253,156
160,I-82 Union Gap,http://images.wsdot.wa.gov/rweather/Medium_uniongap.jpg,46.539,-120.471,320,253,160
161,I-82 Manastash Ridge Summit,http://images.wsdot.wa.gov/rweather/UMRidge_medium.jpg,46.881,-120.425,320,261,161
166,Hwy2 Winton Road,http://images.wsdot.wa.gov/rweather/winton.jpg,47.736,-120.739,320,239,166
167,YakimaCountyLine US 97 @ MP 34,http://images.wsdot.wa.gov/rweather/Medium_Us97@YakimaCountyLine.jpg,46.039673,-120.577138,320,250,167
168,Delaney on US 12 @ MP 381.3,http://images.wsdot.wa.gov/rweather/Medium_Delaney@us12.jpg,46.494089,-117.967967,320,261,168
169,Queets on SR 101 @ MP 151.7,http://images.wsdot.wa.gov/rweather/Medium_Queets.jpg,47.534343,-124.335867,352,261,169
179,Uniontown,http://images.wsdot.wa.gov/rweather/Medium_Uniontown2.jpg,46.547,-117.095,320,239,179
185,Colfax US195,http://images.wsdot.wa.gov/spokane/sr195/colfax.jpg,46.885,-117.364,640,520,185
206,La Push WA,http://webcam.forkswa.com/webcam1/netcam.jpg,47.9054293249054,-124.634195531738,800,600,206
209,Morton,http://home.lewiscounty.com/~mortonwebcam/fullsize.jpg,46.546842,-122.264573,320,240,209
210,,http://www.tripcheck.com/RoadCams/cams/CapeCove_pid618.jpg?0.9729578,0,0,328,295,210
227,,http://www.tripcheck.com/RoadCams/cams/US20atTombstone_pid1354.jpg?0.8276483,0,0,328,314,227
234,,http://www.tripcheck.com/RoadCams/cams/I-5atExit6_pid625.jpg?6.846255E-02,0,0,328,314,234
240,,http://www.tripcheck.com/RoadCams/cams/BlyMtn_pid606.jpg?0.9504053,0,0,328,314,240
296,,http://www.tripcheck.com/RoadCams/cams/i84metro_pid588.jpg?0.4401819,0,0,328,295,296
310,,http://www.tripcheck.com/RoadCams/cams/i205pres_pid542.jpg?9.533328E-02,0,0,328,295,310
335,Alpowa Summit,http://images.wsdot.wa.gov/rweather/alpowa_medium.jpg,46.435,-117.424,320,253,335
336,"Smiths Ferry - SH-55, M.P. 97.2",http://birice.vaisala.com/photos/02A771B8_06E40F64_cam1.jpg,44.30111,-116.08912,640,480,336
337,"Cakdwll - I-84, M.P. 27.6",http://birice.vaisala.com/photos/0338E1B4_0642075C_cam1.jpg,43.6706,-116.67774,640,480,337
338,Elk City NW,http://birice.vaisala.com/photos/03814485_066AB299_cam1.jpg,45.8249,-115.4446,640,480,338
340,Veterans Memorial Bridge,http://birice.vaisala.com/photos/02D714D0_F90B0DB1_CAM1.jpg,47.649,-116.715,640,480,340
341,"Willow Creek Summit - US-93, M.P. 138.7",http://birice.vaisala.com/photos/02DA39EF_05C41D33_cam1.jpg,44.23082,-113.97541,640,480,341
342,"Smiley Creek Airport SH-75, M.P. 165",http://birice.vaisala.com/photos/03778B5F_06013F28_cam2.jpg,43.91301,-114.796526,1280,720,342
343,"Flying-Wye - I-84, M.P. 49",http://birice.vaisala.com/photos/0322B49F_06ABF228_cam1.jpg,43.57524,-116.24349,640,480,343
344,"Black Canyon - I-84, M.P. 13",http://birice.vaisala.com/photos/036CB198_0623C0B5_cam1.jpg,43.86522,-116.77696,640,480,344
345,,http://birice.vaisala.com/photos/03117579_06027467_cam1.jpg,42.5678120193795,-113.760223468127,640,480,345
346,"Rogerson - US-93, M.P. 17",http://birice.vaisala.com/photos/02B7A3C4_06BA7ADC_cam2.jpg,42.214494,-114.594378,1280,720,346
349,,http://birice.vaisala.com/photos/03609136_06043373_cam1.jpg,42.8899620230447,-112.62490857002,640,480,349
350,"Botts - SH-33, M.P. 120.3",http://birice.vaisala.com/photos/036F71CE_0641440C_cam1.jpg,43.87815,-111.3629,640,480,350
351,,http://birice.vaisala.com/photos/02DCE69D_0667CC69_cam1.jpg,0,0,640,480,351
358,"Boulder Summit - US-30, M.P. 452",http://birice.vaisala.com/photos/02864822_0699DE56_cam1.jpg,42.209717,-111.109092,640,480,358
360,"Malad Summit - I-15, M.P. 24",http://birice.vaisala.com/photos/02D83004_06732CB0_cam1.jpg,42.34279,-112.22735,640,480,360
395,I-15 NB @ 500 W / US-89 / MP 318.1,http://www.commuterlink.utah.gov/1_devices/aux5131.jpeg,40.1611526384164,-76.2943309146207,320,240,395
440,I-15 NB @ 1100 S / MP 306.53,http://www.commuterlink.utah.gov/1_devices/aux112.jpeg,40.746844,-111.901307,320,240,440
451,I-215 W NB @ California Ave. / 1330 S / MP 20.6,http://www.commuterlink.utah.gov/1_devices/aux37.jpeg,39.4641744724,-116.5156955,320,240,451
463,5600 W / SR-172 @ 3500 S / SR-171,http://www.commuterlink.utah.gov/1_devices/aux288.jpeg,40.696646,-112.025074,320,240,463
478,I-215 W NB @ 3500 S / SR-171 / MP 17.58,http://www.commuterlink.utah.gov/1_devices/aux31.jpeg,40.698177,-111.949276,320,240,478
482,Constitution Blvd. / 2700 W @ 3100 S,http://www.commuterlink.utah.gov/1_devices/aux175.jpeg,40.703931,-111.95881,320,240,482
503,I-80 @ 2000 E / MP 126.2,http://www.commuterlink.utah.gov/1_devices/aux60.jpeg,40.713392,-111.832132,320,240,503
505,I-80 EB @ Mouth of Parley`s Canyon / MP 128.23,http://www.commuterlink.utah.gov/1_devices/aux67.jpeg,40.709201,-111.79682,320,240,505
509,I-80 / Parley`s Canyon EB @ Exit 130 to SB I-215 E / MP 128.5,http://www.commuterlink.utah.gov/1_devices/aux68.jpeg,40.710867,-111.791208,320,240,509
513,I-80 / Parley`s Canyon WB @ Lamb`s Canyon Rd. Exit Ramp / MP 136.45,http://www.commuterlink.utah.gov/1_devices/aux163.jpeg,40.742937,-111.664414,320,240,513
519,I-80 / Parley`s Canyon WB @ East Canyon / SR-65 Entrance Ramp / MP 133.61,http://www.commuterlink.utah.gov/1_devices/aux157.jpeg,40.753272,-111.715699,320,240,519
535,I-215 E NB @ Parley`s Canyon / 2900 S / MP 1.3,http://www.commuterlink.utah.gov/1_devices/aux148.jpeg,40.707641,-111.792559,320,240,535
580,I-80 / Parley`s Canyon EB @ Milepost 136.95,http://www.commuterlink.utah.gov/1_devices/aux164.jpeg,40.741377,-111.653871,320,240,580
647,Wyo Hill,http://www.wyoroad.info/highway/webcameras/I25WyoHill/I25WyoHillSouth.jpg,41.047461,-104.8901,1280,720,647
648,"Wyo Hill S, N",http://www.wyoroad.info/highway/webcameras/I25WyoHill/I25WyoHillNorth.jpg,41.047353,-104.889687,1280,720,648
649,Cheyenne South POE,http://www.wyoroad.info/highway/webcameras/I25CheyennePOE/I25CheyennePOE.jpg,41.07868,-104.856018,704,480,649
652,,http://www.wyoroad.info/highway/webcameras/I25Whitaker/RoadSurface.jpg,0,0,1280,720,652
658,900 E Center St - Provo,http://www.commuterlink.utah.gov/1_devices/aux14276.jpeg,40.233958,-111.643235,320,240,658
663,"Casper W, Mountain",http://www.wyoroad.info/highway/webcameras/I25Casper/I25CasperMountain.jpg,42.857127,-106.297772,1280,720,663
666,"Bordeaux N, S",http://www.wyoroad.info/highway/webcameras/I25Bordeaux/I25BordeauxSouth.jpg,41.930778,-104.943591,704,576,666
668,"Creston Junction I80 W, Gate, E",http://www.wyoroad.info/highway/webcameras/I80CrestonJct/I80CrestonJctEast.jpg,41.729371,-107.724102,1280,720,668
673,Tavern,http://www.wyoroad.info/highway/webcameras/I80SummitTavern/I80TavernWest.jpg,41.188818,-105.423818,704,480,673
675,Harriman,http://www.wyoroad.info/highway/webcameras/I80Harriman/I80HarrimanWest.jpg,41.098697,-105.1589,704,480,675
678,,http://www.wyoroad.info/highway/webcameras/I80Roundtop/I80RoundtopGate.jpg,0,0,1280,720,678
683,Laramie East,http://www.wyoroad.info/highway/webcameras/I80Laramie/I80LaramieEast.jpg,41.28597,-105.522001,704,480,683
684,,http://www.wyoroad.info/highway/webcameras/I90PineyCreek/I90PineyCreekSBridge.jpg,0,0,1280,720,684
685,Sheridan,http://www.wyoroad.info/highway/webcameras/I90Sheridan/I90Sheridan.jpg,44.772951,-106.936128,704,480,685
689,Lander US287,http://www.wyoroad.info/highway/webcameras/US287Lander/US287Lander.jpg,42.830277,-108.722928,704,480,689
695,"Vedauwoo W, E, Rocks",http://www.wyoroad.info/highway/webcameras/I80Vedauwoo/I80Vedauwoo.jpg,41.146214,-105.382149,1280,720,695
696,,http://www.wyoroad.info/highway/webcameras/I80Vedauwoo/I80VedauwooEast.jpg,0,0,1280,720,696
697,Vedauwoo,http://www.wyoroad.info/highway/webcameras/I80Vedauwoo/I80VedauwooWest.jpg,41.146243,-105.381979,1280,720,697
700,Teton Pass,http://www.wyoroad.info/highway/webcameras/Wyo22TetonPass/Wyo22TetonPassWest.jpg,43.498733,-110.956196,704,480,700
701,WYO 22 Teton Pass mp 11.2 - W and E,http://www.wyoroad.info/highway/webcameras/WYO22TetonPass/WYO22TetonPassEast.jpg,43.497424,-110.955211,704,480,701
702,View of Jackson Hole Valley to the East,http://www.wyoroad.info/highway/webcameras/WYO22TetonPass/WYO22TetonPassValley.jpg,43.492213,-110.916688,704,480,702
703,"Belle Fouche WYO59 S, N",http://www.wyoroad.info/highway/webcameras/WYO59BelleFourche/WYO59BelleFourcheNorth.jpg,43.930912,-105.446593,704,480,703
704,Louis Lake,http://www.wyoroad.info/highway/webcameras/Wyo28SouthPass/Wyo28LouisLakeWest.jpg,42.507244,-108.789062,800,450,704
705,"Louis Lake WYO28 W, Parking",http://www.wyoroad.info/highway/webcameras/Wyo28SouthPass/WYO28LouisLakeParking.jpg,42.505814,-108.788313,800,450,705
706,Cheyenne River,http://www.wyoroad.info/highway/webcameras/Wyo59CheyenneRiver/Wyo59CheyenneRiver.jpg,43.311463,-105.350025,704,480,706
707,Frannie POE,http://www.wyoroad.info/highway/webcameras/US310FranniePOE/US310FranniePOE.jpg,44.962316,-108.623721,704,480,707
708,"Pumpkin Vine SE, NW, Comanche Peak",http://www.wyoroad.info/highway/webcameras/US287PumpkinVine/US287PumpkinVineComanchePeak.jpg,41.051949,-105.468876,1280,720,708
711,"South Pass W, E",http://www.wyoroad.info/highway/webcameras/Wyo28SouthPass/Wyo28NewSouthPassEast.jpg,42.477025,-108.844136,704,480,711
748,Mt.Washington Van.Is. BC,http://www.milehigh.ca/milehigh_netcam/large.jpg,49.7522678667,-125.296347435,550,412,748
750,Mountainbase Live Netcam (Sierras),http://www.mountainbase.com/Webcam/cam.jpg,35.1321877,-118.4489739,640,480,750
753,,http://webcam01.ecn.purdue.edu/axis-cgi/jpg/image.cgi?resolution=640x480&amp,0,40.4291320619522,323,640,753
756,,http://sciencecentercam.fas.harvard.edu/axis-cgi/jpg/image.cgi?camera=1&amp,0,1155310940187,-71,328,756
757,,http://grovecam.iup.edu/axis-cgi/jpg/image.cgi,40.6135171,-79.1619081,320,240,757
758,,http://85.199.1.130/axis-cgi/jpg/image.cgi?showlength=1,0,0,704,576,758
759,,http://sciencecentercam.fas.harvard.edu/axis-cgi/jpg/image.cgi?camera=1&amp,0,44.693427202262,328,704,759
761,,http://www.webcamticino.ch/mobotix/klein06.jpg,0,0,160,120,761
762,,http://www.kapstadt.de/webcam.jpg,-33.9248685,18.4240553,1000,750,762
763,,http://www.webcamticino.ch/mobotix/current.jpg,0,0,640,480,763
764,,http://www.arolla.com/pigne/pignex.jpg,46.0215,7.48164,1280,960,764
766,,http://www.helios-hotels.com/frontline.jpg,39.6952629,3.01757120000002,1280,720,766
767,,http://www.mardelplatawebcam.com.ar/img/webcam_plaza_colon.jpg,-38.0062367,-57.54517,505,379,767
768,,http://weather.cs.uit.no/wcam0_snapshots/wcam0_latest_small.jpg,0,0,640,360,768
769,,http://common.snow.com/mtncams/horseshoebowl.jpg,0,0,640,480,769
770,Mountain Cams,http://common.snow.com/Mtncams/peak8vista.jpg,39.4730877,-106.0851657,1280,720,770
771,,http://common.snow.com/Mtncams/brecksnowcam.jpg,0,0,640,480,771
772,,http://common.snow.com/mtncams/riverrun.jpg,39.6066125,-105.9450159,1280,720,772
773,,http://common.snow.com/Mtncams/bc_phq.jpg,39.634907,-106.525614,1280,720,773
774,,http://common.snow.com/Mtncams/redtail.jpg,0,0,1280,720,774
775,,http://common.snow.com/mtncams/bc_icerink.jpg,39.6046128,-106.517161,640,480,775
776,Beaver Creek,http://common.snow.com/Mtncams/spruce_saddle.jpg,39.5767841,-106.5243387,1280,720,776
777,,http://common.snow.com/Mtncams/buffalos.jpg,0,0,640,360,777
778,,http://common.snow.com/Mtncams/twoelk.jpg,39.5997082,-106.32975,640,360,778
779,Vail Ski Resort Mountain Cams,http://common.snow.com/Mtncams/wildwood.jpg,39.641265,-106.374988,640,360,779
780,UA East Mall,http://wyant.optics.arizona.edu/webcam32.jpg,46.7534229991421,109.391194294322,640,480,780
781,Longyearbyen - west,http://www.svein-nordahl.com/02-gruvedalen.jpg,78.222404,15.6480943,800,400,781
782,Lavik,http://fjordcam.nedernorge.net/webcam.jpg,61.1055297852,5.50733041763,853,480,782
784,Piazza Castello - Turin,http://www.regione.piemonte.it/webcam/im/fc_alfiere.jpg,45.0715298547,7.68465103373,352,288,784
787,,http://www.supermeteo.com/supersano2.jpg,0,0,640,480,787
788,,http://www.supermeteo.com/supersano1.jpg,0,0,640,480,788
789,,http://www.hotelcalabona.com/webcam/alghero.jpg,0,0,640,480,789
791,,http://www.arolla.com/mt-collon/mtcollon.jpg?1174755254421,46.0239625,7.479144,1280,960,791
792,,http://www.fossombronemeteo.it/webcam1/webcam.jpg,0,0,1024,768,792
795,,http://yar.oiccam.com/ftp/capcom/pducla/image.jpg,0,0,400,273,795
797,,http://wwc.instacam.com/instacamimg/FTOMY/FTOMY_l.jpg,26.4504766158042,-81.9373680880587,1280,720,797
798,,http://80.66.4.2/record/current.jpg?rand=3918652,51.7174037001463,8.753214786768,640,480,798
800,,http://wwc.instacam.com/instacamimg/FTOMY/FTOMY_l.jpg,26.449581,-81.9469566,1280,720,800
801,,http://www.erfurt.de/webcam/domplatz.jpg,0,0,640,480,801
806,,http://www.oldforge.net/webcam.jpg,43.7100885,-74.9734809,640,480,806
807,,http://www.les7laux.com/~webcam/webcam3.jpg,45.2564689456449,5.99448883293631,640,480,807
809,,http://www.les7laux.com/~webcam/webcam2.jpg,45.2472392908777,6.01866894720557,640,480,809
810,,http://www.netikka.net/hans.bjorknas/image.jpg,63.096714148026,21.6081443078736,320,240,810
811,Elko Nevada Weather,http://www.nvwx.com/nvwxcam.jpg,40.8324211,-115.7631232,864,486,811
812,,http://www.trinum.com/ibox/champagny/Images/BouquetinSmall.jpg,44.1642603965,4.28361499406,320,240,812
813,,http://www.solitour.info/coronadobeach.jpg,0,0,640,480,813
814,,http://www.elektro-wagner.com/webcam/rathaus.jpg,50.3030932112,8.57084968466,1280,960,814
815,,http://mardelplatawebcam.com.ar/img/webcam_plaza_colon.jpg,-37.9798584,-57.5897942,505,379,815
817,"St. John&#39;s, the Narrows and the Harbour from Signal Hill",http://www.ntv.ca/cams/skycam1.jpg,0,0,640,480,817
820,,http://www.jesner-edv.at/losm/bild2.jpg,0,0,640,480,820
821,,http://www.jesner-edv.at/losm/bild1.jpg,0,0,640,480,821
823,,http://khory.sumava.net/cam-mr/kh1/image.jpg,49.143900346,13.5553374196,1280,960,823
824,Kampenhout,http://www.skystef.be/Kampenhout.jpg,50.94209,4.54980999999998,640,480,824
826,,http://windisgood.com/Webcams/Cookcam.jpg,48.408513,-123.362018,800,450,826
828,Hudson River Pier Cam,http://www.erikthered.com/cam/reshcam_current.jpg,40.7360108,-74.0279374,640,480,828
829,,http://www.scheveningenlive.nl/cam_1.jpg,52.1073543380129,4.27210331974677,800,500,829
830,,http://www.helios-hotels.com/jardin_hel.jpg,0,0,2048,1536,830
831,,http://www.avendano.org/cam.jpg?1113765086671,40.4793697642,-3.67085566015,1920,1080,831
832,Madiera 11,http://www.madeira-web.com/camera/preset-11/fullsize.jpg,32.6467608,-16.9126272,800,450,832
834,Madiera 08,http://www.madeira-web.com/camera/preset-08/fullsize.jpg,32.6467608,-16.9126272,800,450,834
835,Madiera 06,http://www.madeira-web.com/camera/preset-06/fullsize.jpg,32.6467608,-16.9126272,800,450,835
836,Madiera 05,http://www.madeira-web.com/camera/preset-05/fullsize.jpg,32.6467608,-16.9126272,800,450,836
837,Madiera 04,http://www.madeira-web.com/camera/preset-04/fullsize.jpg,32.6467608,-16.9126272,800,450,837
838,Madiera 03,http://www.madeira-web.com/camera/preset-03/fullsize.jpg,32.6467608,-16.9126272,800,450,838
839,Madiera 02,http://www.madeira-web.com/camera/preset-02/fullsize.jpg,32.6467608,-16.9126272,800,450,839
840,Madiera 01,http://www.madeira-web.com/camera/preset-01/fullsize.jpg,32.6464717175151,-16.9125628269836,800,450,840
841,,http://members.aon.at/shammer5/cam/webcam.jpg,37.7881604,20.8988271000001,640,480,841
842,,http://www.haus-waldwiese.de/kurhaus.jpg,0,0,640,480,842
843,,http://www.haus-waldwiese.de/M1/hochfirst.jpg,0,0,640,480,843
844,,http://www.ceskenoviny.cz/.extern_kontejner/webkamera/obrazek.jpg?,0,0,352,288,844
845,,http://www.tempsmataro.net/images/kabcam.jpg,0,0,640,480,845
867,FIRST ST POPLAR ST,http://cdn.511ga.org/cameras/BIBB-CAM-502.jpg,32.836154,-83.63144,720,480,867
873,75 at Northside Dr,http://cdn.511ga.org/cameras/GDOT-CAM-024.jpg,0,0,352,240,873
881,75/85 at Intl Blvd,http://cdn.511ga.org/cameras/GDOT-CAM-012.jpg,0,0,352,240,881
882,75/85 at Ellis St,http://cdn.511ga.org/cameras/GDOT-CAM-011.jpg,0,0,352,240,882
898,I-75 SB AT HUDSON BRIDGE,http://cdn.511ga.org/cameras/GDOT-CAM-720.jpg,33.503662,-84.23364,352,240,898
920,I-285 AT GLENWOOD RD,http://cdn.511ga.org/cameras/GDOT-CAM-259.jpg,56.8336531780465,60.6306392487793,352,240,920
933,I-285 AT LAVISTA RD,http://cdn.511ga.org/cameras/GDOT-CAM-241.jpg,33.846692,-84.247352,352,240,933
937,I-285 E OF CHAMBLEE-TCKR,http://cdn.511ga.org/cameras/GDOT-CAM-236.jpg,39.8302587763522,-107.981200290286,720,480,937
939,I-285 W OF CHAMBLEE-TCKR,http://cdn.511ga.org/cameras/GDOT-CAM-234.jpg,33.8895,-84.2564,720,480,939
950,I-285 1 Mi E of Ash-Dnwdy,http://cdn.511ga.org/cameras/GDOT-CAM-221.jpg,33.9205,-84.3262,720,480,950
993,,http://www.anwb.nl/cameras/camerabeelden/camerabeeld?paramImageNaam=Holendrecht,52.281823672497,4.95127192568783,360,288,993
994,,http://www.anwb.nl/cameras/camerabeelden/camerabeeld?paramImageNaam=Hoevelaken,52.1755784147129,5.42758430224661,360,288,994
995,,http://www.anwb.nl/cameras/camerabeelden/camerabeeld?paramImageNaam=Ewijk,51.8578321542208,5.71239835453037,360,288,995
996,,http://www.anwb.nl/cameras/camerabeelden/camerabeeld?paramImageNaam=Everdingen,51.9608145879414,5.11845535469059,360,288,996
999,,http://images.newmedia.lu/rtl.lu/auto/traffik/traffikcams/cccam_200.jpg,49.4989062197376,6.12455174326898,704,576,999
1010,,http://orca.bcferries.com:8080/cc/data/cam1_NAN.jpg,0,0,352,240,1010
1012,Nanaimo (Duke Pt Ferry Terminal) BC,http://orca.bcferries.com:8080/cc/data/cam1_DUK.jpg,0,0,704,480,1012
1018,E47 nslev,http://webcam.trafikken.dk/webcam/guldborgsund.jpg,0,0,352,288,1018
1025,Bispeengbuen,http://webcam.trafikken.dk/webcam/bispeeng.jpg,55.6949677,12.5346125999999,384,288,1025
1035,E20 Lillebltsbroen,http://webcam.trafikken.dk/webcam/weblille.jpg,0,0,320,240,1035
1047,Rute 15 Barde,http://webcam.trafikken.dk/webcam/barde.jpg,56.1022308037308,8.71686132979971,384,288,1047
1096,Madiera 13,http://www.madeira-web.com/camera/preset-13/fullsize.jpg,32.6467608,-16.9126272,800,450,1096
1098,,http://antarctica.martingrund.de/ohig-pingi2.jpg,-63.3204546042,-57.8946869774,640,480,1098
1099,,http://antarctica.martingrund.de/ohig-pingi2-z.jpg,-25.0319256466296,-56.1554687499999,640,480,1099
1100,Kitt Peak South,http://www.noao.edu/kpno/kpcam/lastim2.jpg,31.9529,-111.6195,640,480,1100
1101,Kitt Peak North,http://www.noao.edu/kpno/kpcam/lastim.jpg,31.9608,-111.5967,640,480,1101
1102,,http://www.magic.iac.es/webcams/webcam2/current/400.jpg,13.2012615046454,77.7742593749999,400,225,1102
1105,,http://www.surfhousesurfcam.com/a_daily/surfcam.jpg,28.944827301679,-95.2901507112533,3648,2752,1105
1106,,http://hei-tennis.dk/webcam/WebCam02.jpg,0,0,1600,1200,1106
1108,,http://www.fsvisimages.com/images/photos-main/agte1_main.jpg,34.1379626,-116.9381434,648,486,1108
1109,,http://www.fsvisimages.com/images/photos-main/biva1_main.jpg,46.5099225,-114.0931588,648,486,1109
1110,,http://www.fsvisimages.com/images/photos-main/bowa1_main.jpg,47.9387890008426,-91.5707117022217,648,486,1110
1111,,http://bodental.it-wms.com/current1.jpg,0,0,400,300,1111
1112,,http://www.sturban.at/webcam/webcam/big_current1.jpg,0,0,640,480,1112
1114,,http://www.ausserfern.net/lt01.jpg,0,0,320,240,1114
1115,,http://members.aon.at/hotel-alpenrose/live/live.jpg,47.2877079456552,10.4302200241088,640,240,1115
1116,,http://www.ausserfern.net/nw04.jpg,0,0,640,480,1116
1117,,http://www.ausserfern.net/nw01.jpg,0,0,704,576,1117
1119,,http://www.zahmerkaiser.com/web_CAM2.jpg,0,0,640,480,1119
1120,,http://www.faschina.at/livecam/cam2.jpg,0,0,2032,1536,1120
1122,,http://www.ceskenoviny.cz/.extern_kontejner/webkamera/obrazek.jpg?dummy=1109723965951,0,0,352,288,1122
1124,,http://www.wetter-berchtesgaden.com/WebCam_4/hirschkaser.jpg,0,0,1024,768,1124
1125,,http://www.wetter-berchtesgaden.com/WebCam_1/kneifelspitze.jpg,47.6581419821012,13.0171380735874,1024,768,1125
1126,,http://www.wetter-berchtesgaden.com/WebCam_5/aschauerweiher.jpg,0,0,640,480,1126
1129,,http://www.chiemgau-webcam.de/03/medium/cam_03_1.jpg,0,0,400,301,1129
1130,,http://www.chiemgau-webcam.de/02/medium/cam_02_1.jpg,0,0,400,301,1130
1131,,http://www.chiemgau-webcam.de/02/big/cam_02_1.jpg,0,0,600,452,1131
1132,,http://goldeneye.garmisch.net/cam.jpg,0,0,320,240,1132
1133,,http://www.brillen-moog.de/webcam/murnau.jpg,47.6789236,11.2008835,1280,720,1133
1134,,http://www.capsandiego.de/cam1/hugesize.jpg,0,0,640,480,1134
1135,,http://www.vifra.gr/tinos/current.jpg,0,0,640,480,1135
1136,,http://www.hochgall.com/webcam/webcam.jpg,0,0,3456,2304,1136
1137,,http://srv2.realcam.it/live/pub/8-2.jpg,0,0,800,450,1137
1138,,http://srv2.realcam.it/live/pub/8-3.jpg,0,0,800,450,1138
1139,,http://srv2.realcam.it/live/pub/8-7.jpg,0,0,800,450,1139
1140,,http://srv2.realcam.it/live/pub/8-9.jpg,0,0,800,450,1140
1141,,http://srv2.realcam.it/live/pub/8-10.jpg,46.2750823,11.7985757,800,450,1141
1142,,http://srv2.realcam.it/live/pub/8-1.jpg,46.2666667,11.8666667,800,450,1142
1143,,http://www.livigno.com/%7Ecamera1/camera1_grande.jpg,0,0,704,576,1143
1144,,http://www.livigno.com/~camera2/camera2_grande.jpg,0,0,704,576,1144
1145,,http://www.knmi.nl/webcam/images/ispy.jpg,52.1013571633721,5.1783121691942,320,240,1145
1148,,http://www.gleitschirm.ch/fileadmin/livecam//kamera-rechts.jpg,47.2856585868696,9.42856600622099,640,480,1148
1149,,http://www.arolla.com/MOBOTIX/arolla1.jpg,0,0,1280,960,1149
1153,,http://www.schaenis-soaring.ch/cam_schaenis.jpg,0,0,640,480,1153
1154,,http://www.schaenis-soaring.ch/cam_schwanden.jpg,0,0,640,480,1154
1155,,http://www.topin.ch/scripts/big_img.php?bild=rig.jpg,0,0,800,600,1155
1156,,http://www.hamatro.ch/gersau.jpg,0,0,640,480,1156
1157,hallwilersee nord 2,http://www.webcam-hallwilersee.ch/uploadpics/pos2-nordzoom.jpg,46.6483979217357,7.51553442648628,704,576,1157
1158,,http://www.webcam-hallwilersee.ch/uploadpics/pos4-sued.jpg,47.2771667,8.21729400000004,704,576,1158
1160,Eternal Sunset,http://antarctica.martingrund.de/ohig-pingi-z.jpg,-63.5167,-58.5,640,480,1160
1161,,http://www.pocruises.com/webcams/aurora.jpg,0,0,352,288,1161
1162,,http://www.pocruises.com/webcams/oceana.jpg,0,0,704,480,1162
1163,,http://www.pocruises.com/webcams/oriana.jpg,0,0,289,216,1163
1164,,http://www.lotuslodge.de/webcam/garten/pllgarten.jpg,0,0,800,450,1164
1165,"Tsim Sha Tsui (looking towards the east), Hong Kong",http://www.hko.gov.hk/wxinfo/aws/hko_mica/hko/latest_HKO.jpg,0,0,720,405,1165
1166,,http://www.lochness.co.uk/livecam/img/lochness.jpg,57.3233574437,-4.44931030273,640,360,1166
1167,Eternal Sunset,http://antarctica.martingrund.de/ohig-pingi.jpg,-63.5167,-58.5,640,480,1167
1168,,http://ivs.bkg.bund.de/vlbi/ohiggins/ohig-web1.jpg,0,0,1024,768,1168
1169,,http://ivs.bkg.bund.de/vlbi/ohiggins/ohig-web.jpg,0,0,1024,768,1169
1171,,http://webcams.vanderbilt.edu/thecommons/hobbsview/hobbs_evocam.jpg?Page=1244754558465  ,36.1492133,-86.8024716,1280,960,1171
1175,,http://webcam.iowa.uiowa.edu/live/readImage.asp?dummy=1350589706202,0,0,1280,720,1175
1177,,http://195.196.36.242/axis-cgi/jpg/image.cgi?camera=&amp,0,1245081533614,0,328,1177
1178,Orpen (Kruger National Park),http://gardenia.sanparks.org/webcams/orpen.jpg,-23.60528,31.55328,384,308,1178
1179,,http://gardenia.sanparks.org/webcams/satara.jpg,-23.8214244,31.4456179,384,308,1179
1180,,http://www.trinum.com/ibox/ftpcam/meaudre_front.jpg,0,0,3103,600,1180
1181,,http://www.trinum.com/ibox/albiez/images/arrivee/albiez_arrivee0.jpg,0,0,704,576,1181
1183,,http://www.trinum.com/ibox/champagny/images/bouquetinmega.jpg,0,0,1280,960,1183
1185,,http://www.trinum.com/ibox/correncon/Images/haut_plateau/correncon_plateau_MEGA.jpg,0,0,1280,960,1185
1187,,http://www.trinum.com/ibox/Oursblanc/Images/OursBlanc0.jpg,0,0,704,576,1187
1188,,http://www.trinum.com/ibox/lans_en_vercors/images/stade/lans_stade4.jpg,0,0,1280,720,1188
1189,,http://www.trinum.com/ibox/megeve/Images/jaillet/jaillet0.jpg,0,0,704,576,1189
1191,,http://www.trinum.com/ibox/praz_de_lys_sommand/Images/sommand_front/sommand_front0.jpg,0,0,704,576,1191
1192,,http://www.kapstadt.de/webcam.jpg,-33.925948,18.428374,1000,750,1192
1196,,http://www.wolfgang-maerkle.de/priv/image/webcam/webcam.jpg,0,0,1280,720,1196
1197,Eternal Sunset,http://www.wetterstation-birrfeld.ch/images/camwest.jpg,47.4333,8.2,640,480,1197
1198,,http://www.swisswebcams.ch/mobotix/g37d.jpg,46.9823125,9.64757599999996,1280,720,1198
1199,,http://www.studen-sz.ch/mobotix/test.jpg,0,0,640,480,1199
1201,,http://www.swisswebcams.ch/mobotix/a32p.jpg,0,0,640,480,1201
1202,,http://www.swisswebcams.ch/mobotix/a63p.jpg,46.5525645095105,9.32310901712721,1024,768,1202
1203,,http://www.flugschule-eichenberger.ch/webcam/pic.jpg,47.2645558447885,8.30148666799073,704,480,1203
1204,,http://cam.biberstein.com/cam.jpg,0,0,640,480,1204
1205,,http://www.bernau.biz/webcam/webcam.jpg,0,0,640,480,1205
1206,,http://www.swisswebcams.ch/mobotix/r16t.jpg,0,0,640,480,1206
1207,,http://www.birkli.ch/webcam/bildklein/aktuell_klein.jpg,46.7004572901338,7.7983659088611,640,480,1207
1208,,http://strpc.net/webcam/current.jpg,0,0,1024,768,1208
1212,,https://images.webcams.travel/webcam/1227972392.jpg,47.4232579761,9.37684523285,400,224,1212
1214,,http://www.leimentalerwetter.ch/meteo/current.jpg,0,0,640,480,1214
1215,,http://www.wasserflue-aarau.ch/webcam/pos5.jpg,0,0,504,405,1215
1217,,http://strpc.net/str/webcam/current.jpg,0,0,1280,960,1217
1218,,http://hubiwetter-sirnach.ch/webcam_data/webcam-sirnach.jpg,47.4635417,8.9952856,640,480,1218
1221,,http://www.nestblick.de/webcam/current.jpg?1055,0,0,640,480,1221
1222,,http://www.waldhaus-riezlern.de/webcam/current.jpg,0,0,640,480,1222
1223,,http://www.webcam-nsv.de/webcam/current.jpg,0,0,640,480,1223
1224,,http://duemmerhotel.de/webcan/current.jpg,0,0,640,480,1224
1226,,http://www.s-n-g.de/webcam/current.jpg,50.791,7.87606,640,480,1226
1227,,http://cooperisland-bvi.com/current.jpg,0,0,1600,1200,1227
1228,,http://www.suvrettahouse.ch/webcam/current.jpg?27730,0,0,1920,1072,1228
1229,,http://wwwi.blatzheim.com/pic/webcam/edkb/current.jpg,0,0,640,480,1229
1230,,http://www.goldenerknopf.de/webcam/current.jpg,0,0,1024,768,1230
1231,,http://meteoarzignano.altervista.org/_altervista_ht/current.jpg,0,0,640,480,1231
1233,,http://www.trinnordic.ch/webcam/current.jpg,0,0,640,480,1233
1234,,http://www.canalcup-cam.de/webcam/current.jpg?r=1226362708,54.29467,9.68258000000003,640,480,1234
1235,,http://www.canalcup-cam.de/webcam/current.jpg?r=1226848912,54.2937663868,9.68312351541,640,480,1235
1236,,http://www.waldhaus-riezlern.at/webcam/current.jpg,0,0,640,480,1236
1237,,http://www.suvrettahouse.ch/webcam/current.jpg?16789,46.4848292918,9.81956958771,1920,1072,1237
1238,,http://www.rwcam.de/fileadmin/rwcam.de/current/current.jpg,0,0,640,480,1238
1239,,http://80.66.4.2/record/current.jpg,0,0,640,480,1239
1240,,http://www.nestblick.de/webcam/current.jpg,0,0,640,480,1240
1241,,http://www.storch-live.de/current.jpg,0,0,640,480,1241
1242,,http://www.hagnau.de/webcam/webcam/current.jpg,0,0,1280,720,1242
1244,,http://str.ch/webcam/current.jpg,0,0,1024,768,1244
1246,,http://sun.barga.com/barga/barga_tal.jpg,0,0,640,480,1246
1247,,http://www.sallanhissit.com/current.jpg,0,0,640,480,1247
1249,,http://www.wetter.debastiani.de/wetterdaten/current.jpg,49.5370846623,8.65691810059,640,480,1249
1250,,http://www.gc-tegernbach.de/webcam/current.jpg,48.2685533138,11.0808944702,640,480,1250
1251,,http://www.nestblick.de/webcam/current.jpg?7470,47.9197132144477,9.73701805508599,640,480,1251
1253,,http://www.e-werk-mittelbaden.de/webcambilder/cam3/current.jpg,0,0,640,480,1253
1255,,http://www.trinnordic.ch/webcam_bargis/current.jpg,46.8539135,9.3212405,640,480,1255
1256,,http://icons.wunderground.com/webcamramdisk/r/b/rbsattwu/1/current.jpg,0,0,1280,720,1256
1257,,http://www.nestblick.de/webcam/current.jpg?5910,0,0,640,480,1257
1258,,http://www.lauberhorn.ch/webcam/current.jpg,0,0,640,480,1258
1259,,http://icons.wunderground.com/webcamramdisk/a/s/asprey/1/current.jpg?1213416057,0,0,480,360,1259
1264,,http://regacam1.tagblatt.com/cgi-bin/jpg/image.cgi,-34.6338101259319,-58.4008436279297,704,576,1264
1266,,http://217.5.197.4/axis-cgi/jpg/image.cgi,-22.3545709985543,-42.70418808534,1280,720,1266
1267,,http://webcam-roggwil2.bioforce.ch/axis-cgi/jpg/image.cgi?resolution=320x240,0,0,320,240,1267
1271,,http://webcam-rade.ville-ge.ch/axis-cgi/jpg/image.cgi?1160648119484,0,0,320,240,1271
1273,Arolla: Hotel Kurhaus,http://www.arolla.com/mt-collon/mtcollon.jpg,0,0,1280,960,1273
1274,,http://www.arolla.com/pigne/pigne.jpg,0,0,1280,960,1274
1275,,http://www.swisswebcams.ch/mobotix/ar2o.jpg,0,0,640,480,1275
1276,,http://www.swisswebcams.ch/mobotix/ar1o.jpg,0,0,640,480,1276
1278,,http://www.todtmoos.info/roessle/1.jpg,0,0,1280,720,1278
1279,,http://www.eckerhof-hinterdorf.de/Bilder/webcam.jpg,0,0,640,480,1279
1280,,http://www.brunni.ch/images/webcam/webcam02.jpg,0,0,320,240,1280
1281,,http://www.ghoech.ch/M1/cam2_live.jpg,0,0,1280,960,1281
1284,,http://www.eigenthal.ch/webcam/live.jpg,47.0166139,8.1801249,640,480,1284
1285,,http://www.straub-feldberg.de/straub-feldberg.jpg,0,0,640,480,1285
1287,,http://www.swisswebcams.ch/mobotix/p58h.jpg,0,0,1024,384,1287
1288,,http://www.swisswebcams.ch/mobotix/p59h.jpg,0,0,1024,384,1288
1289,,http://www.almenrausch.eu/webcam/webcam_almenrausch_b.jpg,0,0,640,480,1289
1290,,http://www.birkenhoehe.com/webcam/webbild.jpg,0,0,704,576,1290
1291,,http://www.swisswebcams.ch/mobotix/L35k.jpg,0,0,640,480,1291
1292,,http://www.swisswebcams.ch/mobotix/L37k.jpg,0,0,640,480,1292
1294,,http://www.mythenregion.ch/html/livekamera/livecammythenregion2.jpg,0,0,1024,768,1294
1296,Saas-Fee: Village,http://www.saasfee.ch/livecam/livedorf.jpg,0,0,640,480,1296
1297,,http://www.hohsaas.info/livebild/fullsize_CAM1.jpg,0,0,704,576,1297
1300,,http://www.swisswebcams.ch/mobotix/S68L.jpg,0,0,640,480,1300
1301,,http://www.swisswebcams.ch/mobotix/S44Q.jpg,0,0,640,480,1301
1302,,http://www.swisswebcams.ch/mobotix/c08o.jpg,0,0,640,480,1302
1303,,http://www.swisswebcams.ch/mobotix/b27a.jpg,46.8071508852082,9.0605291567738,640,480,1303
1304,,http://www.bulktraffic.de/wsvcam/wsvcam.jpg,48.2540905658578,9.03085429221393,800,600,1304
1306,,http://www.swisswebcams.ch/mobotix/e31r.jpg,0,0,640,480,1306
1307,,http://www.swisswebcams.ch/mobotix/k72l.jpg,0,0,1280,720,1307
1308,,http://www.swisswebcams.ch/mobotix/a01m.jpg,0,0,640,480,1308
1309,,http://www.wetter-aftersteg.de/webcam.jpg,0,0,640,480,1309
1311,,http://images.webcams.travel/webcam/1237636535.jpg,0,0,400,224,1311
1312,,http://www.villa.ch/livecam/chillout.jpg,46.6842424213222,7.86148604750634,640,480,1312
1313,,http://www.seepark.ch/webcam/current.jpg,0,0,1024,768,1313
1314,Ina Alblas,http://www.brienzerburli.ch/webcam/cam.jpg,46.7667,8.05,1280,800,1314
1315,,http://www.swisswebcams.ch/mobotix/k91s.jpg,0,0,640,480,1315
1316,,http://www.swisswebcams.ch/mobotix/k67a.jpg,0,0,640,480,1316
1318,,http://images.webcams.travel/webcam/1177877762.jpg,0,0,400,224,1318
1319,,http://www.nielsen.ch/recent.jpg,0,0,640,480,1319
1320,,http://www.wirztravel.ch/webcam/sarnersee/sonnenberg_aktuell.jpg,46.9040948,8.24687560000007,640,480,1320
1322,,http://www.stausee.ch/media/vga_640.jpg,0,0,640,480,1322
1323,,http://www.chemnitz-webcam-petrikirche.de/webcambilder/cam1.jpg,0,0,1280,960,1323
1324,,http://webcam-rade.ville-ge.ch/axis-cgi/jpg/image.cgi?1245275384,0,0,320,240,1324
1325,Mount Gurten street,https://images.webcamgalore.com/webcamimages/webcam-015461.jpg,46.9151,7.43863,340,170,1325
1327,,http://www.swisswebcams.ch/mobotix/e82g.jpg,47.5449495,9.23818359999996,640,480,1327
1328,,http://www.hamatro.ch/gersau.jpg?1245276554,0,0,640,480,1328
1329,,http://www.swisswebcams.ch/mobotix/f41r.jpg,47.2040996614,8.77493797758,640,480,1329
1330,,http://wsc.hotelmedia.ch/webcamleprese/current.jpg,0,0,800,600,1330
1332,,http://safetravelusa.com/sd/camera_images/SDEDG/0/latest.jpg,0,0,384,216,1332
1333,,http://www.moonglow.net/latest.jpg,38.8282202,-93.7689545,640,480,1333
1334,,http://weatherusa.net/skycamnet/skycam3/latest.jpg,40.1727778,-82.4188889,704,576,1334
1336,,http://www.iossc.org.uk/weather/images/latest.jpg?1151232938,0,0,510,383,1336
1337,,http://www.iossc.org.uk/weather/images/latest.jpg?1151536714,51.44011,0.764158,510,383,1337
1338,,http://www.iossc.org.uk/weather/images/latest.jpg,0,0,510,383,1338
1340,weatherUSA SkyCam 3,http://www.weatherusa.net/skycamnet/skycam3/latest.jpg,40.174943,-82.3854739,704,576,1340
1345,,http://www.flugplatz-bielefeld.de/wetter/fullsize.jpg,0,0,352,288,1345
1346,,http://www.salina.k-state.edu/camera/fullsize.jpg,0,0,640,480,1346
1347,,http://www.edli.net/wetter/fullsize.jpg,0,0,352,288,1347
1350,,http://www.thueringer-webcams.de/kunden/mdr/eisenach-berghotel/livebild-pal.jpg,0,0,768,576,1350
1352,,http://camera.clemson.edu/poole/fullsize.jpg,0,0,640,480,1352
1353,,http://swhcam2.evh.de/vhughsize.jpg,0,0,800,600,1353
1354,,http://madeira-web.com/camera/preset-01/fullsize.jpg,32.6669328,-16.9240554,800,450,1354
1355,,http://www.hohsaas.info/livebild/hohsaas_fullsize.jpg,0,0,1280,720,1355
1356,,http://madeira-web.com/camera/preset-10/fullsize.jpg,32.6669328,-16.9240554,800,450,1356
1357,,http://madeira-web.com/camera/preset-08/fullsize.jpg,32.6669328,-16.9240554,800,450,1357
1360,,http://www.pension-waldhaus.de/webcamimages/cam.jpg,0,0,640,480,1360
1361,,http://towercam.intershop.de/fullsize.jpg?camera=2&amp,0,0,0,328,1361
1369,,http://tripcheck.com/RoadCams/cams/TheDalles_pid655.jpg?0.9057581,0,0,328,295,1369
1371,,http://tripcheck.com/RoadCams/cams/RedmondAirport_pid649.jpg?0.3809778,44.2711769459077,-121.161678588867,328,314,1371
1374,,http://tripcheck.com/RoadCams/cams/MeachamWestbound_pid637.jpg?0.9000208,0,0,328,314,1374
1468,,http://tripcheck.com/RoadCams/cams/i5brsbn_pid554.jpg?4.388064E-02,0,0,328,314,1468
1470,,http://tripcheck.com/RoadCams/cams/i5brtop_pid659.jpg?0.9008753,0,0,328,295,1470
1508,,http://tripcheck.com/RoadCams/cams/BlackButte_pid607.jpg?0.4747278,0,0,328,330,1508
1512,,http://www.paulbunyan.net/users/rascarr/Stumplake.jpg,0,0,640,480,1512
1513,,http://rpcam1.lutefisktech.com/images/rpcam1.jpg,47.9032372,-91.8670873,1296,960,1513
1514,,http://www.golden-eagle.com/downloads/Pictures/WebCam/Camer1.jpg?1214351265,48.0578662,-90.4098783,1920,1080,1514
1515,,http://www.rainylakeonestop.com/netcam.jpg,0,0,640,480,1515
1517,I275 at Lawrenceburg. (East),http://cmhimg01.dot.state.oh.us/images/artimis/CCTV063.jpg,39.122004,-84.834044,704,480,1517
1518,Gilmore Summit SH28,http://birice.vaisala.com/photos/0313725F_067EC57D_cam1.jpg,44.4566,-113.2413,640,480,1518
1521,US-12 Lolo Pas,http://birice.vaisala.com/photos/02D0637D_06BCBC1E_cam1.jpg,46.635,-114.58,640,480,1521
1524,"Henrys Lake - US-20, M.P. 401",http://birice.vaisala.com/photos/033CAF03_066B9677_cam1.jpg,44.6183,-111.3355,640,480,1524
1526,"Highland Summit - SH-21, M.P. 14.3",http://birice.vaisala.com/photos/03212210_06E1B86F_cam1.jpg,43.57002,-116.03218,640,480,1526
1527,Wallace,http://birice.vaisala.com/photos/02D4670C_F91769C1_CAM1.jpg,47.474,-115.924,640,480,1527
1529,Greer Grade HWY-11 nr Kamiah,http://birice.vaisala.com/photos/031F2EEE_06C97695_cam1.jpg,46.351,-116.213,640,480,1529
1533,,http://maps.nittec.org/liveimages/CCTV_559.jpg,43.1520214701003,-79.0364354289229,704,480,1533
1543,NY 33 (Kensington Expwy.) at Suffolk St.,http://maps.nittec.org/liveimages/CCTV_516.jpg,42.9333526,-78.8110847,320,240,1543
1561,,http://maps.nittec.org/liveimages/CCTV_530.jpg,6.87635090035466,-75.05490625,704,480,1561
1566,,http://www.roads.gov.nl.ca/cameras/sites/foxtrap/current.jpg,47.507572,-52.976738,352,240,1566
1569,,http://www.roads.gov.nl.ca/cameras/sites/pynnsbrook/current.jpg,49.083333,-57.55,352,288,1569
1570,Port Aux Basques,http://www.roads.gov.nl.ca/cameras/sites/portauxbasques/current.jpg,47.572115,-59.136429,352,240,1570
1676,I-15 Park Lane - Farmington mp 324.44,http://commuterlink.utah.gov/1_devices/aux281.jpeg,40.98907094,-111.9059004,320,240,1676
1691,SR-67 Legacy Parkway Glovers Lane - Farmington mp 10.5,http://commuterlink.utah.gov/1_devices/aux14771.jpeg,40.965173,-111.893022,320,240,1691
1795,,http://commuterlink.utah.gov/1_devices/aux14281.jpeg,0,0,320,240,1795
1802,Harrison Blvd @ 24th St - Ogden,http://commuterlink.utah.gov/1_devices/aux433.jpeg,41.222457,-111.948174,320,240,1802
1840,I-15 24th St NB - Ogden mp 342.2,http://commuterlink.utah.gov/1_devices/aux14778.jpeg,41.223574,-112.010899,320,240,1840
1886,I-80 3200 W - Salt Lake City mp 116.44,http://commuterlink.utah.gov/1_devices/aux48.jpeg,40.76417582,-111.9661035,320,240,1886
1896,I-80 Salt Lake County mp 136.45,http://commuterlink.utah.gov/1_devices/aux163.jpeg,40.74037521,-111.6670609,320,240,1896
1905,I-80 East of Foothill Drive - Salt Lake County mp 127.9,http://commuterlink.utah.gov/1_devices/aux66.jpeg,40.71189025,-111.8022007,320,240,1905
1908,I-80 E of Jeremy - Summit County mp 142.7,http://commuterlink.utah.gov/1_devices/aux168.jpeg,40.74285367,-111.5616521,320,240,1908
1934,SR-201 7200 W - Magna mp 9,http://commuterlink.utah.gov/1_devices/aux256.jpeg,40.718577,-112.063165,320,240,1934
1939,SR-224 Olympic Parkway - Summit County mp 11.2,http://commuterlink.utah.gov/1_devices/aux9236.jpeg,40.724511,-111.544661,320,240,1939
1945,University Ave @ Center St - Provo,http://commuterlink.utah.gov/1_devices/aux14271.jpeg,40.233705,-111.658665,320,240,1945
1972,WIS 172,http://www.dot.wisconsin.gov/travel/greenbay/cameras/cam353.jpg,44.474167,-88.037778,352,260,1972
2050,US-41/45,http://www.dot.wisconsin.gov/travel/milwaukee/cameras/cam051.jpg,43.213333,-88.148056,352,260,2050
2051,US-41/45,http://www.dot.wisconsin.gov/travel/milwaukee/cameras/cam048.jpg,43.169239,-88.077256,352,260,2051
2052,US-41/45,http://www.dot.wisconsin.gov/travel/milwaukee/cameras/cam049.jpg,43.182406,-88.102117,352,260,2052
2113,,http://www.dot.state.wi.us/travel/milwaukee/cameras/cam084.jpg,0,0,352,260,2113
2123,,http://www.wdr.de/themen/global/webcams/domcam/domcam_960_live.jpg,50.9414554004868,6.95650554865722,960,540,2123
2124,,http://www.nature-hotel-delta.com/webcam/current1.jpg,0,0,768,576,2124
2125,,http://www.gasteinertal.com/webcam/angertal_zoom.jpg,0,0,640,480,2125
2126,,http://www.gasteinertal.com/webcam/haitzingalm.jpg,0,0,640,360,2126
2127,,http://www.jan-boesch.net/webcam/neuveville_CIF.jpg,0,0,320,240,2127
2130,,http://www.cooperisland-bvi.com/current.jpg,0,0,1600,1200,2130
2131,Brian Leavy,http://www.weather.bm/images/WebCamera/webcam.jpg,32.3667,-64.6667,800,450,2131
2132,,http://www.breathebonaire.com/~bonairecam1/preview.jpg,12.150167,-68.275184,320,240,2132
2133,,http://www.bayernwebcam.de/bilder/benediktbeuern.jpg,0,0,640,480,2133
2136,,http://www.bayernwebcam.de/bilder/gmund.jpg,0,0,1280,960,2136
2137,,http://www.bayernwebcam.de/bilder/badwiessee2.jpg,0,0,640,480,2137
2138,,http://www.bayernwebcam.de/bilder/kreuth.jpg,47.6446218,11.7433702,1280,960,2138
2139,,http://www.bayernwebcam.de/bilder/tal.jpg,0,0,640,480,2139
2140,,http://www.bayernwebcam.de/bilder/rottach.jpg,0,0,640,480,2140
2141,,http://www.bayernwebcam.de/bilder/tegernsee.jpg,0,0,640,480,2141
2143,E45/E39 Vendsyssel,http://webcam.trafikken.dk/webcam/E39-E45.jpg,0,0,352,288,2143
2146,Rute 180 Limfj.broen N,http://webcam.trafikken.dk/webcam/aalborg2.jpg,0,0,352,288,2146
2158,,http://camera.tjorn.se/tjornbron/cam3.jpg,0,0,800,450,2158
2168,Cobb Pkwy @ Cumb.Mall S.,http://cdn.511ga.org/cameras/GDOT-CAM-055.jpg,0,0,352,240,2168
2245,85 at Ga 400 Ramps,http://cdn.511ga.org/cameras/GDOT-CAM-037.jpg,0,0,1280,720,2245
2345,85 S of Pleasantdale Rd,http://cdn.511ga.org/cameras/GDOT-CAM-084.jpg,0,0,352,240,2345
2369,I-285 1 MI N OF LANGFORD PKWY,http://cdn.511ga.org/cameras/GDOT-CAM-942.jpg,32.207675,-83.7271687,720,480,2369
2375,I-285 S OF I-20 (FULTON),http://cdn.511ga.org/cameras/GDOT-CAM-950.jpg,33.761144,-84.490808,1920,1080,2375
2389,I-285 AT PACES FERRY RD,http://cdn.511ga.org/cameras/GDOT-CAM-968.jpg,33.861268,-84.483544,720,480,2389
2393,,http://oakleywebcam.com/netcam/netcam.jpg,40.7146722,-111.300744,640,480,2393
2394,,http://blackcatnh.com/netcam.jpg,43.6818241183,-71.4196681894,640,480,2394
2395,,http://www.hbcams.com/hbpsouth.jpg,33.6570404676,-118.002337862,1280,720,2395
2396,,http://www.ise.msstate.edu/netcam/netcam3.php,33.4544582228647,-88.7883134524315,640,480,2396
2397,,http://wtconnect.com/netcam.jpg,32.4444418,-99.7341442,640,480,2397
2398,Gimli Harbour,http://www.nihm.ca/netcam.jpg,50.632992,-96.985161,640,480,2398
2399,,http://www.wtconnect.com/netcam.jpg,32.4356131,-99.7778464,640,480,2399
2400,,http://www.crownofmaine.com/netcam.jpg,46.6700815224,-68.030452717,640,480,2400
2401,,http://www.sandybay.org/cam2/netcam.jpg,42.6586071,-70.6145555,640,480,2401
2403,,http://kaweahcommonwealth.com/netcam/netcam.jpg,36.4388364,-118.9045445,1024,576,2403
2404,,http://www.lakesregionwireless.net/bay/netcam.jpg,0,0,640,480,2404
2405,,http://www.micro-specialties.com/images/Chenega/netcam-1.jpg,60.050865437,-148.067489271,640,480,2405
2406,,http://www.northtrinitylake.com/wxsys/netcam/netcam.jpg,40.9831999,-122.694191,640,480,2406
2408,,http://www.spyglasshill.com/Webcam/netcam.jpg,0,0,1280,960,2408
2409,,http://www.sandybay.org/cam1/netcam.jpg,0,0,640,480,2409
2411,,http://weather.ggy.uga.edu/skycam/netcam.jpg,33.9486431,-83.3753496,640,480,2411
2412,Spyglass Condos Lake Michigan Webcam,http://spyglasshill.com/Webcam/netcam.jpg,42.7761569,-86.2090999,1280,960,2412
2413,,http://216.250.47.251/netcam/netcam.jpg,0,0,640,480,2413
2414,,http://cams.skiwinterpark.com/Winter-park-basecam.jpg,39.8916537,-105.7630624,800,450,2414
2450,,http://www.really.de/svc_ts.jpg,0,0,352,288,2450
2451,,http://storchennest-hoechstadt.de/sites/default/files/storch.jpg?1265060812,0,0,768,576,2451
2452,,http://isny.tv/cam/cam_1.jpg,0,0,320,240,2452
2455,,http://www.outercam.co.uk/ssc/camera11.jpg,0,0,352,288,2455
2456,,http://www.outercam.co.uk/ssc/camera3.jpg,56.0773207,-2.64081999999996,352,288,2456
2457,,http://www.outercam.co.uk/ssc/camera8.jpg,56.0773207,-2.64081999999996,352,288,2457
2459,WUSTL Brookings Hall,http://128.252.39.100/SnapshotJPEG?Resolution=1280x960&amp,0,0,-90,323,2459
2460,"Mexico City, Miralta Restaurant, North",http://webcamsdemexico.net/mexicodf4/live.jpg?d=1310850545279,19.4339979435947,-99.140602850254,800,600,2460
2462,Prospect Hill - Hemlock Tower,http://klima.sr.unh.edu/data/latest/harvardhemlock.jpg,0,0,1296,976,2462
2463,Prospect Hill - EMS Tower,http://klima.sr.unh.edu/data/latest/harvard.jpg,42.544449,-72.164004,1296,960,2463
2464,Prospect Hill - Below Canopy,http://klima.sr.unh.edu/data/latest/harvardblo.jpg,0,0,1296,976,2464
2465,Prospect Hill - Barn Tower,http://klima.sr.unh.edu/data/latest/harvardbarn.jpg,0,0,1296,960,2465
2466,"La Push, Washington, James Island",http://webcam.forkswa.com/webcam2/netcam.jpg,48.1465478436,-124.580868723,800,600,2466
2467,Yosemite Webcams,http://pixelcaster.com/yosemite/webcams/turtleback.jpg,37.7439957,-119.5315418,1024,768,2467
2468,"Deer Lake Webcam, Deer Lake Road, Cuba, NM",http://www.deer-lake.net/pictures/camera.jpg,12.8195869818637,-85.33727835,640,480,2468
2469,Baltimore Haze Cam 2,http://www.hazecam.net/images/main/baltimore_left.jpg,0,0,500,250,2469
2470,Baltimore Haze Cam 1,http://www.hazecam.net/images/main/baltimore_right.jpg,0,0,500,250,2470
2471,Blue Hill Haze Cam 2,http://www.hazecam.net/images/main/bluehill_left.jpg,42.2073259523,-71.0986874759,500,250,2471
2472,Boston Haze Cam 1,http://www.hazecam.net/images/main/boston_right.jpg,0,0,500,250,2472
2473,Brigantine Haze Cam 2,http://www.hazecam.net/images/main/brigantine_left.jpg,0,0,500,250,2473
2474,Brigantine Haze Cam 1,http://www.hazecam.net/images/main/brigantine_right.jpg,0,0,500,250,2474
2475,"Moosehorn, ME, webcam",http://hazecam.net/images/main/moosehorn.jpg,0,0,500,300,2475
2476,MidWest Hazecam at Seney National Wildlife Refuge,http://www.mwhazecam.net/images/photos-main/SENEY.jpg,46.2885357,-85.9464292,640,480,2476
2477,"Phoenix, Estrella Mountains",http://www.phoenixvis.net/images/photos-large/esmo1large.jpg,33.4870873386,-112.361981331,5177,1941,2477
2478,White Tank Mountains (W),http://www.phoenixvis.net/images/photos-main/whtm1.jpg,33.468541,-112.297867,800,300,2478
2479,Superstition Mountains (E),http://www.phoenixvis.net/images/photos-main/supm1.jpg,33.415056,-111.822971,800,300,2479
2481,"San Jacinto, CA",http://www.fsvisimages.com/images/photos-main/saja1_main.jpg,33.633677074,-117.21459375,648,486,2481
2482,"Agua Tibia East, CA",http://www.fsvisimages.com/images/photos-main/AGTE1_main.jpg,34.1254584432,-116.951189665,648,486,2482
2483,"Cucamonga South, CA",http://www.fsvisimages.com/images/photos-main/cucs1_main.jpg,34.0830905189,-117.542199893,648,486,2483
2485,"Mount Hood, OR",http://www.fsvisimages.com/images/photos-main/MOHO2_main.jpg,44.7,-121.8,648,486,2485
2486,"Joyce Kilmer-Slickrock, NC",http://www.fsvisimages.com/images/photos-main/JOKI1_main.jpg,35.355641,-83.934072,648,486,2486
2487,"Monture, MT",http://www.fsvisimages.com/images/photos-main/MONT1_main.jpg,47.0200338,-113.1279995,648,486,2487
2488,Pasayten Wilderness,http://www.fsvisimages.com/images/photos-main/PASA1_main.jpg,48.392,-119.907,648,486,2488
2489,"Columbia River Gorge, WA",http://www.fsvisimages.com/images/photos-main/cori1_main.jpg,45.6629109,-120.9984831,648,486,2489
2491,"Bitterroot Valley, MT",http://www.fsvisimages.com/images/photos-main/BIVA1_main.jpg,46.5127388,-114.0907386,648,486,2491
2493,"Dolly Sods, WV",http://www.fsvisimages.com/images/photos-main/doso1_main.jpg,38.9848321,-79.3658796,648,486,2493
2496,"uruapan, mexico",http://webcamsdemexico.net/uruapan3/live.jpg,39.2746145522692,-5.40018750000001,800,600,2496
2498,"morelia, mexico",http://webcamsdemexico.net/morelia1/live.jpg,0,0,800,600,2498
2499,"guanajuato, mexico",http://webcamsdemexico.net/guanajuato1/live.jpg,0,0,800,600,2499
2501,"ixtapa, mexico",http://webcamsdemexico.net/ixtapa1/live.jpg,0,0,800,600,2501
2502,"acapulco, mexico",http://webcamsdemexico.net/acapulco1/live.jpg,0,0,800,600,2502
2503,"playa-del-carmen, mexico",http://webcamsdemexico.net/playacar1/live.jpg,0,0,800,600,2503
2504,"Panoramic View, Hotel Beach Palace Cancn, Cancun, Mexico",http://webcamsdemexico.net/cancun1/live.jpg,0,0,800,600,2504
2505,"monterrey, mexico",http://webcamsdemexico.net/monterrey1/live.jpg,0,0,800,600,2505
2506,"puebla-centro, mexico",http://webcamsdemexico.net/puebla2/live.jpg,0,0,800,600,2506
2508,"mexico-latinoamericana-norte, mexico",http://webcamsdemexico.net/mexicodf4/live.jpg,0,0,800,600,2508
2509,"mexico-zocalo, mexico",http://webcamsdemexico.net/mexicodf1/live.jpg,0,0,800,600,2509
2511,"cam 1, USACE Field Research Facility, Kitty Hawk, NC",http://www.frf.usace.army.mil/oscar/nowc1.jpg,36.1689,-75.7549,2448,2048,2511
2512,Joyce Kilmer Wilderness,http://www.fsvisimages.com/images/photos-main/JOKI1_main.jpg,35.3736954,-83.9754619,648,486,2512
2513,"Pisgah National Forest, North Carolina",http://www.fsvisimages.com/images/photos-main/SHRO1_main.jpg,35.8021685,-82.345189,648,486,2513
2514,MoDNR Visual Air Pollution Camera,http://www.dnr.mo.gov/env/esp/aqm/images/KCCamera.jpg,39.0443227876291,-94.4393083915405,1280,720,2514
2515,Mesa Grande South view,http://hpwren.ucsd.edu/cameras/L/hpwren-iqeye18.jpg,33.1927456,-116.7665369,1600,1200,2515
2516,Palomar Observatory,http://hpwren.ucsd.edu/cameras/L/mpo-p200iqeye.jpg,0,0,2048,1536,2516
2517,Augustine - Homer webcam,http://avo.alaska.edu/webcam/aug_night.jpg,0,0,704,480,2517
2518,Veniaminof webcam,http://avo.alaska.edu/webcam/augtst.jpg,56.1983333,-159.3911111,1296,960,2518
2520,Peulik webcam,http://avo.alaska.edu/webcam/a-spurr.jpg,0,0,512,384,2520
2521,Shishaldin webcam,http://avo.alaska.edu/webcam/peulik.jpg,0,0,640,480,2521
2522,Redoubt - Hut webcam,http://avo.alaska.edu/webcam/shishaldin.jpg,0,0,1024,768,2522
2523,Katmai webcam,http://avo.alaska.edu/webcam/redoubt.jpg,0,0,1024,768,2523
2524,Fourpeaked webcam,http://avo.alaska.edu/webcam/aug_lagoon.jpg,0,0,320,240,2524
2525,Redoubt - DFR webcam,http://avo.alaska.edu/webcam/redoubt-2.jpg,0,0,1024,768,2525
2526,Makushin webcam,http://avo.alaska.edu/webcam/redoubt-3.jpg,0,0,640,480,2526
2527,Akutan AKSD webcam,http://avo.alaska.edu/webcam/okif.jpg,0,0,640,480,2527
2528,Albuquerque NM City Cam KOB-TV,http://wwc.instacam.com/instacamimg/KOBTV/KOBTV_l.jpg,0,0,640,480,2528
2529,Mount Kenya,http://kenyawebcam.com/mountkenyacam/pic/stream.jpg,0.117674,37.15559,640,480,2529
2530,Mountain Lodge,http://kenyawebcam.com/mtlodgecam/pic/upload.jpg,-0.316757,37.152458,640,480,2530
2531,Ngong Hills,http://kenyawebcam.com/ngongcam/pic/stream.jpg,-1.369861,36.728142,640,480,2531
2532,Nyeri,http://kenyawebcam.com/nyericam/pic/upload.jpg,-0.414784,36.942074,1280,720,2532
2533,Finlays Tea Estate (Broken),http://kenyawebcam.com/finlayscam/pic/overfile.jpg,-0.435678,35.301235,640,480,2533
2534,Mt Longonot from Naivasha,http://kenyawebcam.com/naivashacam/pic/upload.jpg,-0.648652,36.485294,640,480,2534
2537,Edson: West View,http://www.metcam.navcanada.ca/dawc_images/wxcam/CYET/CYET_W-full-e.jpeg,53.57787,-116.45669,800,600,2537
2538,Edson: East View,http://www.metcam.navcanada.ca/dawc_images/wxcam/CYET/CYET_E-full-e.jpeg,53.5778,-116.45713,800,600,2538
2539,Fort Chipewyan,http://www.metcam.navcanada.ca/dawc_images/wxcam/CYPY/CYPY_NE-full-e.jpeg,58.767222,-111.117222,800,600,2539
2541,Fort McMurray: Northwest View,http://www.metcam.navcanada.ca/dawc_images/wxcam/CYMM/CYMM_NW-full-e.jpeg,56.65298,-111.22452,800,600,2541
2542,Fort McMurray: Southeast View,http://www.metcam.navcanada.ca/dawc_images/wxcam/CYMM/CYMM_SE-full-e.jpeg,56.65374,-111.22454,800,600,2542
2543,High Level: North View,http://www.metcam.navcanada.ca/dawc_images/wxcam/CYOJ/CYOJ_N-full-e.jpeg,58.62163,-117.16514,800,600,2543
2544,High Level: Southeast View,http://www.metcam.navcanada.ca/dawc_images/wxcam/CYOJ/CYOJ_SE-full-e.jpeg,58.62089,-117.16476,800,600,2544
2545,Jasper-Hinton: Northeast View,http://www.metcam.navcanada.ca/dawc_images/wxcam/CEC4/CEC4_NE-full-e.jpeg,53.32147,-117.75445,800,600,2545
2547,Lloydminster: Northeast View,http://www.metcam.navcanada.ca/dawc_images/wxcam/CYLL/CYLL_NE-full-e.jpeg,53.30878,-110.07291,800,600,2547
2548,Lloydminster: West View,http://www.metcam.navcanada.ca/dawc_images/wxcam/CYLL/CYLL_W-full-e.jpeg,53.30912,-110.072,800,600,2548
2550,Pincher Creek: West View,http://www.metcam.navcanada.ca/dawc_images/wxcam/CZPC/CZPC_W-full-e.jpeg,49.52066,-113.99761,800,600,2550
2552,Rocky Mountain House: North View,http://www.metcam.navcanada.ca/dawc_images/wxcam/CYRM/CYRM_N-full-e.jpeg,52.43071,-114.90718,800,600,2552
2553,Rocky Mountain House: Southwest View,http://www.metcam.navcanada.ca/dawc_images/wxcam/CYRM/CYRM_SW-full-e.jpeg,52.43059,-114.90673,800,600,2553
2554,Rocky Mountain House: Southeast View,http://www.metcam.navcanada.ca/dawc_images/wxcam/CYRM/CYRM_SE-full-e.jpeg,52.43073,-114.90673,800,600,2554
2555,Slave Lake: West View,http://www.metcam.navcanada.ca/dawc_images/wxcam/CYZH/CYZH_W-full-e.jpeg,55.2971,-114.78284,800,600,2555
2557,Addenbroke Island Lightstation: Northwest View,http://www.metcam.navcanada.ca/dawc_images/wxcam/TM17/TM17_NW-full-e.jpeg,51.60342,-127.86347,800,600,2557
2559,Amphitrite Point Lighthouse: West View,http://www.metcam.navcanada.ca/dawc_images/wxcam/TM13/TM13_W-full-e.jpeg,48.921,-125.53987,800,600,2559
2561,Anahim Lake: West View,http://www.metcam.navcanada.ca/dawc_images/wxcam/CAJ4/CAJ4_W-full-e.jpeg,52.45241,-125.30493,800,600,2561
2563,Atlin: East View,http://www.metcam.navcanada.ca/dawc_images/wxcam/CYSQ/CYSQ_E-full-e.jpeg,59.58138,-133.6671,800,600,2563
2564,Atlin: South View,http://www.metcam.navcanada.ca/dawc_images/wxcam/CYSQ/CYSQ_S-full-e.jpeg,59.58056,-133.66678,800,600,2564
2565,Bella Bella: North View,http://www.metcam.navcanada.ca/dawc_images/wxcam/CBBC/CBBC_N-full-e.jpeg,52.19118,-128.15303,800,600,2565
2566,Bella Bella: Southeast View,http://www.metcam.navcanada.ca/dawc_images/wxcam/CBBC/CBBC_SE-full-e.jpeg,52.19082,-128.15229,800,600,2566
2567,Bob Quinn Lake: North View,http://www.metcam.navcanada.ca/dawc_images/wxcam/CBW4/CBW4_N-full-e.jpeg,56.97987,-130.25001,800,600,2567
2568,Bob Quinn Lake: Southeast View,http://www.metcam.navcanada.ca/dawc_images/wxcam/CBW4/CBW4_SE-full-e.jpeg,56.96699,-130.24979,800,600,2568
2569,Buckinghorse River (Sikanni Chief): Northeast View,http://www.metcam.navcanada.ca/dawc_images/wxcam/TM23/TM23_NE-full-e.jpeg,57.38846,-122.85238,800,600,2569
2571,Burns Lake: West View,http://www.metcam.navcanada.ca/dawc_images/wxcam/CYPZ/CYPZ_W-full-e.jpeg,54.3817,-125.95751,800,600,2571
2574,Chatham Point Lightstation: East View,http://www.metcam.navcanada.ca/dawc_images/wxcam/TM02/TM02_E-full-e.jpeg,50.33327,-125.44594,800,600,2574
2575,Cheakamus Canyon Tower: North View,http://www.metcam.navcanada.ca/dawc_images/wxcam/TM05/TM05_N-full-e.jpeg,49.84797,-123.18923,800,600,2575
2576,Cheakamus Canyon Tower: Southeast View,http://www.metcam.navcanada.ca/dawc_images/wxcam/TM05/TM05_SE-full-e.jpeg,49.84753,-123.18911,800,600,2576
2578,Clearwater: Northeast View,http://www.metcam.navcanada.ca/dawc_images/wxcam/TM15/TM15_NE-full-e.jpeg,51.64979,-120.03641,800,600,2578
2582,Fort Ware: Northwest View,http://www.metcam.navcanada.ca/dawc_images/wxcam/CAJ9/CAJ9_NW-full-e.jpeg,57.42601,-125.63663,800,600,2582
2584,Fraser Camp: East View,http://www.metcam.navcanada.ca/dawc_images/wxcam/TM14/TM14_E-full-e.jpeg,59.71474,-135.04412,800,600,2584
2586,Golden: North View,http://www.metcam.navcanada.ca/dawc_images/wxcam/CYGE/CYGE_N-full-e.jpeg,51.3001,-116.98505,800,600,2586
2587,Golden: Southeast View,http://www.metcam.navcanada.ca/dawc_images/wxcam/CYGE/CYGE_SE-full-e.jpeg,51.30022,-116.98415,800,600,2587
2588,Hope: West View,http://www.metcam.navcanada.ca/dawc_images/wxcam/CYHE/CYHE_W-full-e.jpeg,49.37,-121.49466,800,600,2588
2589,Invermere: North View,http://www.metcam.navcanada.ca/dawc_images/wxcam/CAA8/CAA8_N-full-e.jpeg,50.51947,-116.00602,800,600,2589
2590,Invermere: South View,http://www.metcam.navcanada.ca/dawc_images/wxcam/CAA8/CAA8_S-full-e.jpeg,50.51909,-116.00581,800,600,2590
2591,Kelowna: North View,http://www.metcam.navcanada.ca/dawc_images/wxcam/CYLW/CYLW_N-full-e.jpeg,49.95577,-119.37759,800,600,2591
2593,Lytton: Northwest View,http://www.metcam.navcanada.ca/dawc_images/wxcam/CWLY/CWLY_NW-full-e.jpeg,50.22431,-121.58111,800,600,2593
2595,Mackenzie: Northeast View,http://www.metcam.navcanada.ca/dawc_images/wxcam/CYZY/CYZY_NE-full-e.jpeg,55.305,-123.13315,800,600,2595
2597,Manning Provincial Park: Northwest View,http://www.metcam.navcanada.ca/dawc_images/wxcam/TM03/TM03_NW-full-e.jpeg,49.06292,-120.78739,800,600,2597
2599,Merritt: Northeast View,http://www.metcam.navcanada.ca/dawc_images/wxcam/CAD5/CAD5_NE-full-e.jpeg,50.12266,-120.74758,800,600,2599
2600,Merritt: Southwest View,http://www.metcam.navcanada.ca/dawc_images/wxcam/CAD5/CAD5_SW-full-e.jpeg,50.12258,-120.74739,800,600,2600
2601,Muncho Lake  : North View,http://www.metcam.navcanada.ca/dawc_images/wxcam/CWWQ/CWWQ_N-full-e.jpeg,58.93025,-125.76754,800,600,2601
2602,Muncho Lake  : Southwest View,http://www.metcam.navcanada.ca/dawc_images/wxcam/CWWQ/CWWQ_SW-full-e.jpeg,58.92983,-125.76792,800,600,2602
2603,Nanaimo Harbour: North View,http://www.metcam.navcanada.ca/dawc_images/wxcam/TM12/TM12_N-full-e.jpeg,49.16827,-123.93521,800,600,2603
2604,Nanaimo Harbour: Northeast View,http://www.metcam.navcanada.ca/dawc_images/wxcam/TM12/TM12_NE-full-e.jpeg,49.16811,-123.93594,800,600,2604
2605,Pemberton: East View,http://www.metcam.navcanada.ca/dawc_images/wxcam/CYPS/CYPS_E-full-e.jpeg,50.30278,-122.74204,800,600,2605
2606,Port Alberni: Northwest View,http://www.metcam.navcanada.ca/dawc_images/wxcam/CBS8/CBS8_NW-full-e.jpeg,49.31712,-124.9269,800,600,2606
2608,Powell River: West View,http://www.metcam.navcanada.ca/dawc_images/wxcam/CYPW/CYPW_W-full-e.jpeg,49.83387,-124.49798,800,600,2608
2610,Prince George: Northeast View,http://www.metcam.navcanada.ca/dawc_images/wxcam/CYXS/CYXS_NE-full-e.jpeg,53.8898,-122.67899,800,600,2610
2613,Prince Rupert: East View,http://www.metcam.navcanada.ca/dawc_images/wxcam/CYPR/CYPR_E-full-e.jpeg,54.2905,-123.13312,800,600,2613
2615,Quesnel: Northwest View,http://www.metcam.navcanada.ca/dawc_images/wxcam/CYQZ/CYQZ_NW-full-e.jpeg,53.02689,-122.50493,800,600,2615
2617,Quesnel: South View,http://www.metcam.navcanada.ca/dawc_images/wxcam/CYQZ/CYQZ_S-full-e.jpeg,35.9100686,-78.4346954,800,600,2617
2618,Revelstoke: Northwest View,http://www.metcam.navcanada.ca/dawc_images/wxcam/CYRV/CYRV_NW-full-e.jpeg,50.96711,-118.18305,800,600,2618
2621,Salmon Arm: Northeast View,http://www.metcam.navcanada.ca/dawc_images/wxcam/CZAM/CZAM_NE-full-e.jpeg,50.68605,-119.23282,800,600,2621
2623,Salt Spring Island - Ganges Harbour: North View,http://www.metcam.navcanada.ca/dawc_images/wxcam/TM21/TM21_N-full-e.jpeg,48.85429,-123.49771,800,600,2623
2624,Salt Spring Island - Ganges Harbour: East View,http://www.metcam.navcanada.ca/dawc_images/wxcam/TM21/TM21_E-full-e.jpeg,48.85397,-123.49708,800,600,2624
2626,Sandspit: West View,http://www.metcam.navcanada.ca/dawc_images/wxcam/CYZP/CYZP_W-full-e.jpeg,53.25717,-131.81775,800,600,2626
2628,Saturna Island - East Point: North View,http://www.metcam.navcanada.ca/dawc_images/wxcam/TM20/TM20_N-full-e.jpeg,48.78326,-123.04525,800,600,2628
2631,Smithers: Northwest View,http://www.metcam.navcanada.ca/dawc_images/wxcam/CYYD/CYYD_NW-full-e.jpeg,54.82496,-127.1826,800,600,2631
2633,Squamish: North View,http://www.metcam.navcanada.ca/dawc_images/wxcam/CYSE/CYSE_N-full-e.jpeg,49.78229,-123.15962,800,600,2633
2634,Tsay Keh: Northwest View,http://www.metcam.navcanada.ca/dawc_images/wxcam/CBN9/CBN9_NW-full-e.jpeg,56.89885,-124.95994,800,600,2634
2637,Vernon: Northeast View,http://www.metcam.navcanada.ca/dawc_images/wxcam/CYVK/CYVK_NE-full-e.jpeg,50.24662,-119.33044,800,600,2637
2639,West Vancouver: West View,http://www.metcam.navcanada.ca/dawc_images/wxcam/TM18/TM18_W-full-e.jpeg,49.34491,-123.18174,800,600,2639
2641,Whistler Heliport: Southwest View,http://www.metcam.navcanada.ca/dawc_images/wxcam/CBE9/CBE9_SW-full-e.jpeg,50.16887,-122.90407,800,600,2641
2642,Whistler Heliport: Southeast View,http://www.metcam.navcanada.ca/dawc_images/wxcam/CBE9/CBE9_SE-full-e.jpeg,50.16869,-122.90414,800,600,2642
2643,Whistler Radar: North View,http://www.metcam.navcanada.ca/dawc_images/wxcam/TM07/TM07_N-full-e.jpeg,50.0664,-123.11014,800,600,2643
2644,Whistler Radar: Northeast View,http://www.metcam.navcanada.ca/dawc_images/wxcam/TM07/TM07_NE-full-e.jpeg,50.06617,-123.11002,800,600,2644
2645,Whistler Radar: South View,http://www.metcam.navcanada.ca/dawc_images/wxcam/TM07/TM07_S-full-e.jpeg,50.06588,-123.11039,800,600,2645
2646,Dauphin: North View,http://www.metcam.navcanada.ca/dawc_images/wxcam/CYDN/CYDN_N-full-e.jpeg,51.09995,-100.05538,800,600,2646
2648,Lynn Lake: North View,http://www.metcam.navcanada.ca/dawc_images/wxcam/CYYL/CYYL_N-full-e.jpeg,56.86237,-101.07183,800,600,2648
2652,Tadoule Lake: West View,http://www.metcam.navcanada.ca/dawc_images/wxcam/CYBQ/CYBQ_W-full-e.jpeg,58.70702,-98.5116,800,600,2652
2653,Tadoule Lake: East View,http://www.metcam.navcanada.ca/dawc_images/wxcam/CYBQ/CYBQ_E-full-e.jpeg,58.70665,-98.51123,800,600,2653
2654,Fredericton: West View,http://www.metcam.navcanada.ca/dawc_images/wxcam/CYFC/CYFC_W-full-e.jpeg,45.87239,-66.53091,800,600,2654
2657,Miramichi: East View,http://www.metcam.navcanada.ca/dawc_images/wxcam/CYCH/CYCH_E-full-e.jpeg,47.00824,-65.46835,800,600,2657
2659,St. Stephen: West View,http://www.metcam.navcanada.ca/dawc_images/wxcam/CCS3/CCS3_W-full-e.jpeg,45.20759,-67.25042,800,600,2659
2660,St. Stephen: South View,http://www.metcam.navcanada.ca/dawc_images/wxcam/CCS3/CCS3_S-full-e.jpeg,45.20767,-67.2506,800,600,2660
2661,Churchill Falls: East View,http://www.metcam.navcanada.ca/dawc_images/wxcam/CZUM/CZUM_E-full-e.jpeg,53.55897,-64.09397,800,600,2661
2662,Natuashish: Northwest View,http://www.metcam.navcanada.ca/dawc_images/wxcam/CNH2/CNH2_NW-full-e.jpeg,55.91327,-61.18578,800,600,2662
2663,Natuashish: Northeast View,http://www.metcam.navcanada.ca/dawc_images/wxcam/CNH2/CNH2_NE-full-e.jpeg,55.913,-61.1853,800,600,2663
2664,Rigolet: Northwest View,http://www.metcam.navcanada.ca/dawc_images/wxcam/CCZ2/CCZ2_NW-full-e.jpeg,54.17879,-58.45086,800,600,2664
2665,Rigolet: Northeast View,http://www.metcam.navcanada.ca/dawc_images/wxcam/CCZ2/CCZ2_NE-full-e.jpeg,54.17838,-58.45146,800,600,2665
2666,St. Anthony: Northeast View,http://www.metcam.navcanada.ca/dawc_images/wxcam/CYAY/CYAY_NE-full-e.jpeg,51.38771,-56.08764,800,600,2666
2667,Winterland: West View,http://www.metcam.navcanada.ca/dawc_images/wxcam/CCC2/CCC2_W-full-e.jpeg,47.13719,-55.32938,800,600,2667
2669,Debert: Northeast View,http://www.metcam.navcanada.ca/dawc_images/wxcam/CCQ3/CCQ3_NE-full-e.jpeg,45.41891,-63.46058,800,600,2669
2671,Digby: East View,http://www.metcam.navcanada.ca/dawc_images/wxcam/CYID/CYID_E-full-e.jpeg,44.54554,-65.78902,800,600,2671
2673,Port Hawkesbury: West View,http://www.metcam.navcanada.ca/dawc_images/wxcam/CYPD/CYPD_W-full-e.jpeg,45.65753,-61.37376,800,600,2673
2675,Trenton: East View,http://www.metcam.navcanada.ca/dawc_images/wxcam/CYTN/CYTN_E-full-e.jpeg,45.61222,-62.62148,800,600,2675
2677,Arnprior: Northwest View,http://www.metcam.navcanada.ca/dawc_images/wxcam/CNP3/CNP3_NW-full-e.jpeg,45.41316,-76.36534,800,600,2677
2678,Arnprior: Southwest View,http://www.metcam.navcanada.ca/dawc_images/wxcam/CNP3/CNP3_SW-full-e.jpeg,45.41331,-76.36558,800,600,2678
2679,Arnprior: Southeast View,http://www.metcam.navcanada.ca/dawc_images/wxcam/CNP3/CNP3_SE-full-e.jpeg,45.41345,-76.36586,800,600,2679
2681,Attawapiskat: West View,http://www.metcam.navcanada.ca/dawc_images/wxcam/CYAT/CYAT_W-full-e.jpeg,52.92727,-82.43171,800,600,2681
2682,Bancroft: Northwest View,http://www.metcam.navcanada.ca/dawc_images/wxcam/CNW3/CNW3_NW-full-e.jpeg,45.07342,-77.88061,800,600,2682
2684,Big Trout Lake: Northwest View,http://www.metcam.navcanada.ca/dawc_images/wxcam/CYTL/CYTL_NW-full-e.jpeg,53.81817,-89.89732,800,600,2684
2686,Brockville: North View,http://www.metcam.navcanada.ca/dawc_images/wxcam/CNL3/CNL3_N-full-e.jpeg,45.41372,-75.75048,800,600,2686
2688,Burlington Airpark: West View,http://www.metcam.navcanada.ca/dawc_images/wxcam/CZBA/CZBA_W-full-e.jpeg,43.44399,-79.85307,800,600,2688
2690,Centralia: Northwest View,http://www.metcam.navcanada.ca/dawc_images/wxcam/CYCE/CYCE_NW-full-e.jpeg,43.28896,-81.50497,800,600,2690
2692,Centralia: Southeast View,http://www.metcam.navcanada.ca/dawc_images/wxcam/CYCE/CYCE_SE-full-e.jpeg,43.28819,-81.50444,800,600,2692
2693,Collingwood: North View,http://www.metcam.navcanada.ca/dawc_images/wxcam/CNY3/CNY3_N-full-e.jpeg,44.44874,-80.15883,800,600,2693
2696,Cornwall: Northwest View,http://www.metcam.navcanada.ca/dawc_images/wxcam/CYCC/CYCC_NW-full-e.jpeg,45.09239,-74.56827,800,600,2696
2698,Dryden Regional: North View,http://www.metcam.navcanada.ca/dawc_images/wxcam/CYHD/CYHD_N-full-e.jpeg,49.82992,-92.74654,800,600,2698
2700,Earlton: East View,http://www.metcam.navcanada.ca/dawc_images/wxcam/CYXR/CYXR_E-full-e.jpeg,47.69478,-79.84851,800,600,2700
2701,Earlton: Southwest View,http://www.metcam.navcanada.ca/dawc_images/wxcam/CYXR/CYXR_SW-full-e.jpeg,47.69539,-79.84915,800,600,2701
2702,Elliot Lake: West View,http://www.metcam.navcanada.ca/dawc_images/wxcam/CYEL/CYEL_W-full-e.jpeg,46.35194,-82.55639,800,600,2702
2704,Gore Bay: North View,http://www.metcam.navcanada.ca/dawc_images/wxcam/CYZE/CYZE_N-full-e.jpeg,44.4488,-80.15858,800,600,2704
2705,Gore Bay: Southwest View,http://www.metcam.navcanada.ca/dawc_images/wxcam/CYZE/CYZE_SW-full-e.jpeg,45.88489,-82.56795,800,600,2705
2707,Hearst: Northeast View,http://www.metcam.navcanada.ca/dawc_images/wxcam/CYHF/CYHF_NE-full-e.jpeg,49.70929,-83.69392,800,600,2707
2709,Kitchener - Waterloo: North View,http://www.metcam.navcanada.ca/dawc_images/wxcam/CYKF/CYKF_N-full-e.jpeg,43.45607,-80.38693,800,600,2709
2712,Moosonee: Southwest View,http://www.metcam.navcanada.ca/dawc_images/wxcam/CYMO/CYMO_SW-full-e.jpeg,51.29181,-80.60724,800,600,2712
2713,Muskoka: North View,http://www.metcam.navcanada.ca/dawc_images/wxcam/CYQA/CYQA_N-full-e.jpeg,44.97474,-79.30324,800,600,2713
2714,Muskoka: East View,http://www.metcam.navcanada.ca/dawc_images/wxcam/CYQA/CYQA_E-full-e.jpeg,44.97444,-79.30364,800,600,2714
2715,Oshawa: North View,http://www.metcam.navcanada.ca/dawc_images/wxcam/CYOO/CYOO_N-full-e.jpeg,43.9196,-78.89419,800,600,2715
2717,Oshawa: Northeast View,http://www.metcam.navcanada.ca/dawc_images/wxcam/CYOO/CYOO_NE-full-e.jpeg,43.91909,-78.8943,800,600,2717
2718,Parry Sound: Northwest View,http://www.metcam.navcanada.ca/dawc_images/wxcam/CNK4/CNK4_NW-full-e.jpeg,45.25188,-79.82544,800,600,2718
2720,Peterborough: North View,http://www.metcam.navcanada.ca/dawc_images/wxcam/CYPQ/CYPQ_N-full-e.jpeg,44.23072,-78.35235,800,600,2720
2722,Sarnia: North View,http://www.metcam.navcanada.ca/dawc_images/wxcam/CYZR/CYZR_N-full-e.jpeg,42.99508,-82.30686,800,600,2722
2724,Smiths Falls: East View,http://www.metcam.navcanada.ca/dawc_images/wxcam/CYSH/CYSH_E-full-e.jpeg,44.94831,-75.93933,800,600,2724
2725,Smiths Falls: South View,http://www.metcam.navcanada.ca/dawc_images/wxcam/CYSH/CYSH_S-full-e.jpeg,44.94766,-75.93998,800,600,2725
2726,St. Thomas: Southwest View,http://www.metcam.navcanada.ca/dawc_images/wxcam/CYQS/CYQS_SW-full-e.jpeg,42.77036,-81.11076,800,600,2726
2727,St. Thomas: Southeast View,http://www.metcam.navcanada.ca/dawc_images/wxcam/CYQS/CYQS_SE-full-e.jpeg,42.77443,-81.10454,800,600,2727
2728,Billy Bishop Toronto City: East View,http://www.metcam.navcanada.ca/dawc_images/wxcam/CYTZ/CYTZ_E-full-e.jpeg,43.62756,-79.39624,800,600,2728
2729,Billy Bishop Toronto City: Southwest View,http://www.metcam.navcanada.ca/dawc_images/wxcam/CYTZ/CYTZ_SW-full-e.jpeg,43.62783,-79.39586,800,600,2729
2731,Baie-Comeau: North View,http://www.metcam.navcanada.ca/dawc_images/wxcam/CYBC/CYBC_N-full-e.jpeg,49.13638,-68.20186,800,600,2731
2733,Baie-Comeau: Southwest View,http://www.metcam.navcanada.ca/dawc_images/wxcam/CYBC/CYBC_SW-full-e.jpeg,49.13661,-68.20113,800,600,2733
2734,Bonaventure: West View,http://www.metcam.navcanada.ca/dawc_images/wxcam/CYVB/CYVB_W-full-e.jpeg,48.07089,-65.46067,800,600,2734
2735,Bonaventure: East View,http://www.metcam.navcanada.ca/dawc_images/wxcam/CYVB/CYVB_E-full-e.jpeg,48.07152,-65.4602,800,600,2735
2736,Charlevoix: North View,http://www.metcam.navcanada.ca/dawc_images/wxcam/CYML/CYML_N-full-e.jpeg,47.59987,-70.23325,800,600,2736
2738,Havre St-Pierre: West View,http://www.metcam.navcanada.ca/dawc_images/wxcam/CYGV/CYGV_W-full-e.jpeg,50.28297,-63.60547,800,600,2738
2739,Havre St-Pierre: East View,http://www.metcam.navcanada.ca/dawc_images/wxcam/CYGV/CYGV_E-full-e.jpeg,50.28243,-63.6061,800,600,2739
2741,Kuujjuarapik: North View,http://www.metcam.navcanada.ca/dawc_images/wxcam/CYGW/CYGW_N-full-e.jpeg,55.28321,-77.76003,800,600,2741
2742,Kuujjuarapik: West View,http://www.metcam.navcanada.ca/dawc_images/wxcam/CYGW/CYGW_W-full-e.jpeg,55.28333,-77.76008,800,600,2742
2743,La Grande-4: East View,http://www.metcam.navcanada.ca/dawc_images/wxcam/CYAH/CYAH_E-full-e.jpeg,53.75683,-73.68096,800,600,2743
2744,La Grande-4: Southwest View,http://www.metcam.navcanada.ca/dawc_images/wxcam/CYAH/CYAH_SW-full-e.jpeg,53.75676,-73.68051,800,600,2744
2745,La Tuque: North View,http://www.metcam.navcanada.ca/dawc_images/wxcam/CYLQ/CYLQ_N-full-e.jpeg,47.41449,-72.78649,800,600,2745
2746,La Tuque: Southwest View,http://www.metcam.navcanada.ca/dawc_images/wxcam/CYLQ/CYLQ_SW-full-e.jpeg,47.41462,-72.78629,800,600,2746
2747,Maniwaki: Northeast View,http://www.metcam.navcanada.ca/dawc_images/wxcam/CYMW/CYMW_NE-full-e.jpeg,46.27363,-75.99381,800,600,2747
2748,Maniwaki: South View,http://www.metcam.navcanada.ca/dawc_images/wxcam/CYMW/CYMW_S-full-e.jpeg,46.27294,-75.99339,800,600,2748
2749,Matagami: Northwest View,http://www.metcam.navcanada.ca/dawc_images/wxcam/CYNM/CYNM_NW-full-e.jpeg,49.76169,-77.80237,800,600,2749
2750,Matagami: South View,http://www.metcam.navcanada.ca/dawc_images/wxcam/CYNM/CYNM_S-full-e.jpeg,49.76143,-77.80297,800,600,2750
2751,Mont-Laurier: North View,http://www.metcam.navcanada.ca/dawc_images/wxcam/CSD4/CSD4_N-full-e.jpeg,46.56073,-75.57769,800,600,2751
2753,La Macaza / Mont Tremblant: North View,http://www.metcam.navcanada.ca/dawc_images/wxcam/CYFJ/CYFJ_N-full-e.jpeg,46.40503,-74.7791,800,600,2753
2754,La Macaza / Mont Tremblant: South View,http://www.metcam.navcanada.ca/dawc_images/wxcam/CYFJ/CYFJ_S-full-e.jpeg,46.40497,-74.77923,800,600,2754
2755,Natashquan: Northwest View,http://www.metcam.navcanada.ca/dawc_images/wxcam/CYNA/CYNA_NW-full-e.jpeg,50.18975,-61.79216,800,600,2755
2756,Natashquan: Southwest View,http://www.metcam.navcanada.ca/dawc_images/wxcam/CYNA/CYNA_SW-full-e.jpeg,50.18932,-61.79233,800,600,2756
2757,Natashquan: Southeast View,http://www.metcam.navcanada.ca/dawc_images/wxcam/CYNA/CYNA_SE-full-e.jpeg,50.18965,-61.79234,800,600,2757
2758,Sherbrooke: West View,http://www.metcam.navcanada.ca/dawc_images/wxcam/CYSC/CYSC_W-full-e.jpeg,45.44041,-71.69203,800,600,2758
2760,St-Georges: North View,http://www.metcam.navcanada.ca/dawc_images/wxcam/CYSG/CYSG_N-full-e.jpeg,46.10081,-70.70643,800,600,2760
2762,St. Hubert: Northeast View,http://www.metcam.navcanada.ca/dawc_images/wxcam/CYHU/CYHU_NE-full-e.jpeg,45.51794,-73.41692,800,600,2762
2763,St. Hubert: Southwest View,http://www.metcam.navcanada.ca/dawc_images/wxcam/CYHU/CYHU_SW-full-e.jpeg,45.51748,-73.41733,800,600,2763
2764,Trois Rivieres: Southwest View,http://www.metcam.navcanada.ca/dawc_images/wxcam/CYRQ/CYRQ_SW-full-e.jpeg,46.36241,-72.67653,800,600,2764
2766,Key Lake: Northeast View,http://www.metcam.navcanada.ca/dawc_images/wxcam/CYKJ/CYKJ_NE-full-e.jpeg,57.25545,-105.62091,800,600,2766
2767,Key Lake: Southwest View,http://www.metcam.navcanada.ca/dawc_images/wxcam/CYKJ/CYKJ_SW-full-e.jpeg,57.2559,-105.62073,800,600,2767
2768,Nipawin: North View,http://www.metcam.navcanada.ca/dawc_images/wxcam/CYBU/CYBU_N-full-e.jpeg,53.33279,-104.00378,800,600,2768
2769,Nipawin: West View,http://www.metcam.navcanada.ca/dawc_images/wxcam/CYBU/CYBU_W-full-e.jpeg,53.33292,-104.00351,800,600,2769
2770,North Battleford: North View,http://www.metcam.navcanada.ca/dawc_images/wxcam/CYQW/CYQW_N-full-e.jpeg,52.76871,-108.24742,800,600,2770
2771,North Battleford: East View,http://www.metcam.navcanada.ca/dawc_images/wxcam/CYQW/CYQW_E-full-e.jpeg,52.76822,-108.24764,800,600,2771
2772,Stony Rapids: East View,http://www.metcam.navcanada.ca/dawc_images/wxcam/CYSF/CYSF_E-full-e.jpeg,59.24981,-105.83581,800,600,2772
2773,Stony Rapids: Southwest View,http://www.metcam.navcanada.ca/dawc_images/wxcam/CYSF/CYSF_SW-full-e.jpeg,59.25052,-105.83532,800,600,2773
2774,Swift Current: Northwest View,http://www.metcam.navcanada.ca/dawc_images/wxcam/CYYN/CYYN_NW-full-e.jpeg,50.29205,-107.69045,800,600,2774
2775,Swift Current: East View,http://www.metcam.navcanada.ca/dawc_images/wxcam/CYYN/CYYN_E-full-e.jpeg,50.29168,-107.69101,800,600,2775
2776,Yorkton: Northeast View,http://www.metcam.navcanada.ca/dawc_images/wxcam/CYQV/CYQV_NE-full-e.jpeg,51.26476,-102.46118,800,600,2776
2777,Yorkton: West View,http://www.metcam.navcanada.ca/dawc_images/wxcam/CYQV/CYQV_W-full-e.jpeg,51.2643,-102.46098,800,600,2777
2778,Carmacks: West View,http://www.metcam.navcanada.ca/dawc_images/wxcam/CEX4/CEX4_W-full-e.jpeg,62.11098,-136.17835,800,600,2778
2779,Carmacks: Southeast View,http://www.metcam.navcanada.ca/dawc_images/wxcam/CEX4/CEX4_SE-full-e.jpeg,62.11112,-136.17838,800,600,2779
2780,Haines Junction: Northwest View,http://www.metcam.navcanada.ca/dawc_images/wxcam/CYHT/CYHT_NW-full-e.jpeg,60.78911,-137.5451,800,600,2780
2781,Haines Junction: East View,http://www.metcam.navcanada.ca/dawc_images/wxcam/CYHT/CYHT_E-full-e.jpeg,60.78911,-137.54574,800,600,2781
2782,Swift River - Rancheria: Northeast View,http://www.metcam.navcanada.ca/dawc_images/wxcam/TM22/TM22_NE-full-e.jpeg,60.08771,-130.60377,800,600,2782
2790,Abbotsford (McCallum-RN) BC,http://images.drivebc.ca/bchighwaycam/pub/cameras/224.jpg,0,0,420,315,2790
2795,Aldergrove BC/Lynden WA,http://images.drivebc.ca/bchighwaycam/pub/cameras/168.jpg,0,0,420,315,2795
2798,Rainbow Range Anahim Lake Highway Cam,http://images.drivebc.ca/bchighwaycam/pub/cameras/139.jpg,52.7,-125.8,420,315,2798
2799,Anarchist St. (elev. 1100m) BC,http://images.drivebc.ca/bchighwaycam/pub/cameras/64.jpg,0,0,420,315,2799
2800,Banff,http://www.bestofbanff.com/webcam/lastshot.jpg,0,0,1920,720,2800
2807,Brenda Mine (Hwy 97C) BC,http://images.drivebc.ca/bchighwaycam/pub/cameras/96.jpg,49.8696408123631,-119.937100923061,420,315,2807
2815,Callaghan Valley Whistler BC,http://www.whistlerolympicpark.com/webcams/netcam-s.jpg,50.1190231,-122.9547588,1296,960,2815
2825,Columbia Beach Parksville BC,http://www.windisgood.com/Webcams/columbiacam.jpg,0,0,800,450,2825
2827,Coquihalla Lakes BC,http://images.drivebc.ca/bchighwaycam/pub/cameras/161.jpg,49.6278213921,-121.013908386,420,315,2827
2828,Coquihalla Snowshed BC,http://images.drivebc.ca/bchighwaycam/pub/cameras/2.jpg,0,0,420,315,2828
2830,Cowichan Bay BC,http://windisgood.com/Webcams/Cowcam.jpg,0,0,640,480,2830
2832,Creston (Arpt-S-View) BC,http://www.crestonairport.ca/images/webcam/south-view-camera.jpg,0,0,2592,1944,2832
2833,Dallas Rd./Cook St. Victoria BC,http://www.windisgood.com/Webcams/Cookcam.jpg,48.4079202,-123.3578569,800,450,2833
2834,Dallas Road Victoria BC,http://www.windisgood.com/Webcams/Cookcam2.jpg,0,0,640,480,2834
2838,Earls Cove Sunshine Coast BC,http://images.drivebc.ca/bchighwaycam/pub/cameras/244.jpg,0,0,420,315,2838
2841,English Bay Vancouver BC,http://www.katkam.ca/pic.aspx,0,0,1280,960,2841
2844,Field (Looking SW) BC,http://images.drivebc.ca/bchighwaycam/pub/cameras/189.jpg,51.3962602,-116.4952301,420,315,2844
2845,Fort St. John (S. T. H.) BC,http://images.drivebc.ca/bchighwaycam/pub/cameras/10.jpg,56.1324938,-120.6656802,420,315,2845
2846,Francois Lake BC,http://images.drivebc.ca/bchighwaycam/pub/cameras/140.jpg,54.0260895,-125.7701952,420,315,2846
2848,Friday Harbor (N) San Juan Is. WA,http://images.wsdot.wa.gov/airports/friday4.jpg,48.5242123982495,-123.025904907935,640,501,2848
2849,Friday Harbor (S) San Juan Is. WA,http://images.wsdot.wa.gov/airports/friday2.jpg,48.5248377,-123.0261624,640,501,2849
2850,Friday Harbor (SE) San Juan Is. WA,http://images.wsdot.wa.gov/airports/friday1.jpg,48.5248377,-123.0261624,640,501,2850
2852,Georgia St. Vancouver BC,http://images.drivebc.ca/bchighwaycam/pub/cameras/19.jpg,0,0,420,315,2852
2854,Harbour Quay Port Alberni BC,http://windisgood.com/Webcams/Albernicam.jpg,0,0,1280,720,2854
2856,Hidden Valley Whitehorse Yukon,http://meteowhitehorse.ca/webcammeteowhitehorse.jpg,0,0,320,240,2856
2858,Horseshoe Bay W. Van. BC,http://images.drivebc.ca/bchighwaycam/pub/cameras/228.jpg,0,0,420,315,2858
2859,Hosmer BC,http://images.drivebc.ca/bchighwaycam/pub/cameras/175.jpg,49.584415,-114.961512,420,315,2859
2861,Huntington (Farmer Rd-N) BC,http://images.drivebc.ca/bchighwaycam/pub/cameras/259.jpg,0,0,420,315,2861
2870,Hwy1@Hwy15 Surrey BC,http://images.drivebc.ca/bchighwaycam/pub/cameras/172.jpg,0,0,420,315,2870
2882,Hwy91@No.8-E Richmond BC,http://images.drivebc.ca/bchighwaycam/pub/cameras/210.jpg,0,0,420,315,2882
2897,I.M.Br. S. end Vancouver BC,http://images.drivebc.ca/bchighwaycam/pub/cameras/71.jpg,0,0,420,315,2897
2899,Island Lk Fernie BC,http://www.timecam.tv/upload_image_tc/projects/islandlake/image.jpg,0,0,1296,960,2899
2900,Island View Beach Saanich BC,http://www.windisgood.com/Webcams/IVcam_2.jpg,0,0,640,480,2900
2901,J. M. Snowshed (elev. 910m) BC,http://images.drivebc.ca/bchighwaycam/pub/cameras/159.jpg,48.433,-123.35,420,315,2901
2903,Kasiks BC,http://images.drivebc.ca/bchighwaycam/pub/cameras/146.jpg,0,0,420,315,2903
2904,Kelowna - Lakeview BC,http://www.castanet.net/scenic-web-cams/assets/cameras/scenic1/now.jpg,0,0,980,739,2904
2908,Keremeos BC,http://images.drivebc.ca/bchighwaycam/pub/cameras/235.jpg,0,0,420,315,2908
2909,Kicking Horse Canyon BC,http://images.drivebc.ca/bchighwaycam/pub/cameras/214.jpg,0,0,420,315,2909
2913,Kootenay Pass,http://images.drivebc.ca/bchighwaycam/pub/cameras/5.jpg,49.06,-117.039,420,315,2913
2915,L.G.Br. (looking S) W. Van. BC,http://images.drivebc.ca/bchighwaycam/pub/cameras/18.jpg,0,0,420,315,2915
2921,Larson Hill (elev. 1060m) BC,http://images.drivebc.ca/bchighwaycam/pub/cameras/58.jpg,0,0,420,315,2921
2922,Lillooet-Fountain Valley BC,http://images.drivebc.ca/bchighwaycam/pub/cameras/206.jpg,0,0,420,315,2922
2924,Malibu BC,http://www.malibuhydro.com/cameras/ateam.jpg,0,0,736,480,2924
2926,Manson Creek BC,http://www.mansoncreek.com/capture1.jpg,55.6684629415197,-124.437708624657,1920,1100,2926
2928,Masset Haida Gwaii BC,http://images.drivebc.ca/bchighwaycam/pub/cameras/198.jpg,0,0,420,315,2928
2931,Mission BC,http://images.drivebc.ca/bchighwaycam/pub/cameras/232.jpg,49.1329272,-122.3261603,420,315,2931
2934,Mount Robson BC,http://www.env.gov.bc.ca/bcparks/netcam_live/robson.jpg,0,0,640,480,2934
2935,Mt. Mackenzie (1950 m) Revelstoke BC,http://www.revelstokemountainresort.com/uploads/webcams/ripper.jpg,0,0,1024,576,2935
2946,Peace Arch,http://images.wsdot.wa.gov/nw/005vc27650.jpg,49.001458,-122.755663,335,249,2946
2949,Peace Arch Park,http://images.drivebc.ca/bchighwaycam/pub/cameras/13.jpg,0,0,420,315,2949
2950,Peace View Peace Ri. BC,http://images.drivebc.ca/bchighwaycam/pub/cameras/205.jpg,0,0,420,315,2950
2951,Pemberton (Arpt-E) BC,http://feeds.customfithosting.com/webcams/webcam1.jpg,0,0,800,600,2951
2952,Pemberton (Arpt-W) BC,http://feeds.customfithosting.com/webcams/webcam2.jpg,0,0,800,600,2952
2953,Penticton BC,http://icons.wunderground.com/webcamramdisk/b/b/BBV/1/current.jpg,0,0,800,448,2953
2954,Port Alberni Summit (elev. 320m) BC,http://images.drivebc.ca/bchighwaycam/pub/cameras/102.jpg,0,0,420,315,2954
2957,PR Bridge Pitt Meadows BC,http://images.drivebc.ca/bchighwaycam/pub/cameras/194.jpg,49.246200092906,-122.728100335598,420,315,2957
2964,Radium H. S. (elev. 875m) BC,http://images.drivebc.ca/bchighwaycam/pub/cameras/132.jpg,0,0,420,315,2964
2967,Roberts Lake BC,http://images.drivebc.ca/bchighwaycam/pub/cameras/202.jpg,0,0,420,315,2967
2972,Salmon Arm (Arpt-1) BC,http://www.masconcable.ca/webcams/airport1.jpg,0,0,640,480,2972
2973,Salmon Arm (Arpt-2) BC,http://www.masconcable.ca/webcams/airport2.jpg,0,0,640,480,2973
2974,Salmon Arm (Arpt-3) BC,http://www.masconcable.ca/webcams/airport3.jpg,0,0,640,480,2974
2975,Salmon Arm BC,http://masconcable.ca/webcams/h2.jpg,0,0,640,480,2975
2976,Salmon Arm BC,http://masconcable.ca/webcams/bastion.jpg,0,0,1280,720,2976
2977,San Pareil Parksville BC,http://windisgood.com/Webcams/pareilcam.jpg,49.3193375,-124.3136412,640,480,2977
2979,Scotch Creek BC,http://www.masconcable.ca/webcams/scotchcreek.jpg,0,0,1280,720,2979
2980,Secret Cove Sunshine Coast BC,http://webcam.rockwatersecretcoveresort.com/webcam/current.jpg,0,0,1200,425,2980
2983,Sicamous BC,http://www.masconcable.ca/webcams/sicamous.jpg,0,0,640,480,2983
2984,Sidney (McTavish Rd-N) BC,http://images.drivebc.ca/bchighwaycam/pub/cameras/263.jpg,0,0,420,315,2984
2986,Skidegate Haida Gwaii BC,http://images.drivebc.ca/bchighwaycam/pub/cameras/197.jpg,53.2470969022653,-132.009435361624,420,315,2986
2987,Smithers (elev. 500 m) BC,http://images.drivebc.ca/bchighwaycam/pub/cameras/6.jpg,54.78197126933,-127.166626518965,420,315,2987
2989,Sparwood BC,http://images.drivebc.ca/bchighwaycam/pub/cameras/131.jpg,0,0,420,315,2989
2995,Terrace (Looking S) BC,http://www.hollowaybar.org/webcam/webcam06.jpg,0,0,1280,720,2995
2997,Terrace Beach Ucluelet BC,http://www.terracebeachresort.ca/images/webcam/webcam.jpg,0,0,800,600,2997
2998,Thetis Island BC,http://www.wgtelectric.ca/cars.jpg,0,0,640,480,2998
2999,Thompson Ri. BC,http://www.masconcable.ca/webcams/duck.jpg,0,0,1280,720,2999
3002,Uni.NBC Prince George BC,http://cirrus.unbc.ca/webcam/current_unbc.jpg,0,0,640,480,3002
3003,Vancouver BC,http://www.vancam.ca/vancam.jpg,0,0,1296,960,3003
3004,Walloper (elev. 1300m) BC,http://images.drivebc.ca/bchighwaycam/pub/cameras/61.jpg,0,0,420,315,3004
3007,Watson Lake (Looking S) Yukon,http://www.hollowaybar.org/webcam/webcam02.jpg,0,0,640,480,3007
3008,Watson Lake (looking W) Yukon,http://www.hollowaybar.org/webcam/webcam08.jpg,0,0,640,480,3008
3011,Whitehorse Yukon Canada,http://www.wpyr.com/webcam/whitehorsedepot.jpg,60.7167,-135.05,640,480,3011
3012,Wire Cache BC,http://images.drivebc.ca/bchighwaycam/pub/cameras/156.jpg,51.7237698655047,-119.360417938375,420,315,3012
3015,WRB Bridge Kelowna BC,http://images.drivebc.ca/bchighwaycam/pub/cameras/149.jpg,0,0,420,315,3015
3019,Atlanta Georgia,https://wagaradio2.com/index.html/WebCams/GLENCam1.jpg?,33.7497447444,-84.3883686381,640,480,3019
3020,Baltimore Maryland,http://www.hazecam.net/images/main/baltimore_right.jpg?,39.2903848,-76.6121893,500,250,3020
3021,Blue Hill Observatory Massachusetts,http://www.hazecam.net/images/main/bluehill_right.jpg?,42.211991,-71.114185,500,250,3021
3023,Frostburg Maryland,http://www.hazecam.net/images/main/frostburg.jpg?,0,0,500,300,3023
3024,Seney Wildlife Refuge MI,http://www.mwhazecam.net/images/photos-main/seney.jpg?,46.289544,-85.947588,640,480,3024
3025,University of Maine at Presque Isle,http://www.micmacweather.com/netcam/large/thumb.php?src=netcam.jpg&amp,0,46.6694136,328,1023,3025
3026,I-5 at Pine Street,http://images.wsdot.wa.gov/nw/005vc18997.jpg,47.61249932,-122.3295879,335,249,3026
3034,augistine-webcam Est,http://www.avo.alaska.edu/webcam/augtst.jpg,59.357608,-153.344765,1296,960,3034
3036,Carlisle Volcano Alaska Volcano Observatory: Cleveland Cam,http://www.cfht.hawaii.edu/webcams/gemdome/gemdome.jpg,52.9,-170.1,704,494,3036
3037,Craters of the Moon Tom Cat Summit Highway Cam 1,http://birice.vaisala.com/photos/02F75DC9_061CC258_cam1.jpg,43.4,-113.5,640,480,3037
3038,augustine-webcam Homer,http://www.avo.alaska.edu/webcam/augustine.jpg,59.651092,-151.534424,1280,960,3038
3039,Mount Hood KGW-TV Timberline SkyCam,http://w3.gorge.net/niknas/webcam.jpg,45.4,-121.7,1280,720,3039
3040,peulik Et Chiginagak-webcam Du Mont Whale,http://www.avo.alaska.edu/webcam/peulik.jpg,58.045911,-156.346607,640,480,3040
3041,Trout Lake,http://www.petries.net/troutlake/camera0.jpg,45.998,-121.531,1024,768,3041
3042,Mount Spurr Alaska Volcano Observatory: Mount Spurr CKT Cam,http://www.avo.alaska.edu/webcam/a-spurr.jpg,61.3,-152.3,512,384,3042
3043,shishaldin-webcam Avo,http://www.avo.alaska.edu/webcam/shishaldin.jpg,54.709152,-163.703842,1024,768,3043
3044,redoubt-webcam Dfr,http://www.avo.alaska.edu/webcam/redoubt-3.jpg,60.520806,-152.641296,640,480,3044
3045,Asozan Volcano Aso Webcam,http://www.uty.co.jp/live/snap.jpg,35.4915542267193,138.603000951303,640,480,3045
3047,Hamilton KTVQ,http://montint.cordillera.tv/Missoula/Cameras/Hamilton.jpg,46.248353,-114.159722,640,480,3047
3048,Addo Elephant National Park,http://gardenia.sanparks.org/webcams/addo.jpg,-33.45,25.73,384,308,3048
3049,Swakopmund Beach Webcam updates every 5 minutes - View SouthWest,http://weather.namsearch.com/swkmolecam.jpg,-23.08,14.81,1280,720,3049
3050,Windhoek Webcam updates every 5 minutes - View NorthEast,http://weather.namsearch.com/windhoekwebcam.jpg,-22.5739716,17.0785144,640,480,3050
3051,Hakusembe River Lodge Webcam automatically updates every 5 minutes - View North-West over Okavango river,http://weather.namsearch.com/hakusembe/Hakusembe.jpg,-17.859,19.677,1920,1080,3051
3052,Craiova Centru,http://82.77.65.43:8207/record/current.jpg,44.3179220934463,23.7948162178993,640,480,3052
3053,"The Beach of Maspalomas, Gran Canaria",http://www.playademaspalomas.com/meteo/playa.jpg,27.738,-15.581,800,600,3053
3054,Grands Montets Logan webcam Argentiere (Chamonix),http://www.compagniedumontblanc.fr/webcam/Grandsmontets.jpg,0,0,640,480,3054
3055,Mer de Glace webcam Chamonix,http://www.compagniedumontblanc.fr/webcam/CMM1MERDEGLACE.jpg,34,-95,1280,480,3055
3056,Place Balmat webcam Chamonix (centre),http://static1.chamonet.com/image_uploader/webcam/large/chamonix-town-centre.jpg,0,0,2592,1443,3056
3057,Valle Blanche Arete (Aiguille du Midi) Chamonix,http://www.compagniedumontblanc.fr/webcam/tam_arrete.jpg,45.8336421,6.86459390000005,640,480,3057
3059,Most recent conditions in Badger,http://www.env.gov.nl.ca/wrmd/ADRS/v6/webcam/Badger_Webcam.jpg,0,0,640,504,3059
3060,Beaver Cove,http://www.beavercovecamps.com/weather/images/weathercam/weathercam.jpg,45.55925643,-69.46105957,640,360,3060
3061,Brookfield,http://170.222.32.148/rwisimages/Image-707007-707007-0-1.jpg,44.023611,-72.6,704,480,3061
3062,Burlington Skyline,http://tv3.wcax.com/n/wcaxsnap.jpg,44.47698741,-73.21252584,420,240,3062
3063,Corner Brook,http://www.roads.gov.nl.ca/cameras/sites/cornerbrook/current.jpg,48.950824,-57.949563,320,240,3063
3064,Dublin Cam,http://s3.amazonaws.com/almanac/webcam/image.jpg,42.90463946,-72.0907402,738,554,3064
3065,Ely,http://images.webcams.travel/webcam/1268871050.jpg,47.903237,-91.867087,400,224,3065
3067,Foxboro,http://wwc.instacam.com/instacamimg/FXBRG/FXBRG_l.jpg?rnd=15-112020112002,42.065381,-71.247825,1280,720,3067
3068,Franconia,http://www.koolkinetics.com/franconia/images/ispy1.jpg,44.2270075,-71.7478646,1280,720,3068
3069,Glenwood,http://www.gnb.ca/0113/cameras/cam-images/RNBGW.jpg,46.981782,-65.370811,320,240,3069
3070,Holiday Valley,http://www.snowgrabber.com/grabber/holiday-valley-base.jpg,42.27324426,-78.67172241,640,480,3070
3071,Lake Winnipesaukee Cam - Bear Cam 3,http://www.bearcam1.com/bearcam3.jpg,43.64737973,-71.40795708,704,480,3071
3072,Liberty Mountain,http://www.libertymountainresort.com/cams/TLC.jpg,39.73465017,-77.46185303,640,480,3072
3073,Liberty Mountain,http://www.libertymountainresort.com/cams/TLC1.jpg,39.73042573,-77.44400024,640,480,3073
3074,McCauley summit,http://www.oldforge.net/mcwebcamtop.jpg,43.69145966,-74.96134758,640,480,3074
3075,Newport,http://icons.wunderground.com/webcamramdisk/d/m/Dmaroot/1/current.jpg,44.936436,-72.205102,320,240,3075
3076,NMU,http://www.acs.nmu.edu/campics/academic.jpg,46.543544,-87.395417,640,480,3076
3077,Plattekill,http://www.plattekill.com/webcam/image1.jpg,42.285691,-74.5690155,1920,1080,3077
3078,Port Rexton,http://www.roads.gov.nl.ca/cameras/sites/portrexton_amec/current.jpg,48.38909,-53.344116,320,240,3078
3079,Portland,http://www.autoeurope.com/noapp/hcam.cfm,43.65197549,-70.26031494,704,480,3079
3080,Rochester,http://www.frontiernet.net/~domonroe/picture.jpg?1228793789578,43.14458519,-77.5904274,640,480,3080
3081,St Donat,http://www.pierreforget.com/video01.jpg,46.319515,-74.220387,640,480,3081
3082,Stratton Mountain,http://images.webcams.travel/webcam/1225049276.jpg,43.0613889,-72.9041667,400,224,3082
3083,View of the Adirondacks,http://www.orda.org/arena1.jpg,44.27372147,-73.98159027,320,240,3083
3084,Wachusett,http://www.instacam.com/instacamimg/PRNWM/PRNWM_s.jpg,42.44930143,-71.8787384,640,360,3084
3085,Westford Weather,http://www.westfordweather.net/cam/webcam.jpg,44.61002348,-73.00827026,1600,1200,3085
3087,Jackson Hole Ski Resort - Top of Tram,http://www.jacksonhole.com/webcam/codybowl.jpg,0,0,1280,720,3087
3088,Jackson Hole Ski Resort - Top of Thunder Chair looking at top of Gondola,http://www.jacksonhole.com/webcam/guncam.jpg,0,0,1920,1080,3088
3089,Brooks Lake Lodge Web Cam,http://www.brookslake.com/netcam.jpg,43.7473346,-110.0077166,1024,768,3089
3090,Hunky's Technical Services Webcam,http://www.hunkydory.cc/weather/Image.jpg,42.7438412,-110.9335853,640,480,3090
3091,DayWeather WeatherCam - Keystone Wyoming USA - 6192 feet,http://dayweather.com/keystone/ispy.jpg,0,0,640,480,3091
3092,University of Wyoming PastureCam,http://www.uwagec.org/pasturecam/camera1.jpg,41.3091948,-105.610542,2592,1944,3092
3093,DayWeather Web Cam,http://dayweather.com/ispy.jpg,41.1530026,-104.8180888,640,480,3093
3096,Eternal Sunset,http://www.met.fu-berlin.de/wetter/webcam/Wannsee_prod.jpg,52.4833,13.35,704,576,3096
3097,Eternal Sunset,http://www.avendano.org/cam.jpg,40.4,-3.01667,1920,1080,3097
3098,Eternal Sunset,http://www.hotelcalabona.it/webcam/alghero.jpg,40.55,8.31667,640,480,3098
3099,Eternal Sunset,http://webcam.usask.ca/cgi-bin/getcam.cgi?camera=axiscam2,52.1167,-106.633,640,480,3099
3100,Lighthouse and Dock Webcams,http://www.tawasbayweather.com/images/webcam1.jpg,44.2799888,-83.4782752,640,480,3100
3101,Eternal Sunset,http://www.mairie-cosnesurloire.fr/photo.jpg,47.4,2.91667,352,288,3101
3102,Eternal Sunset,http://www.wallacecompany.com/E45/webcam2.jpg,37.8667,-120.167,448,296,3102
3103,Eternal Sunset,http://boulderflatironcam.com/bfc/bfc.jpg,39.59,-105.08,1024,576,3103
3104,Big Creek Marina,http://mesonet.agron.iastate.edu/data/camera/640x480/KCCI-034.jpg,0,0,640,480,3104
3105,CDR - Mount Mercy,http://mesonet.agron.iastate.edu/data/camera/640x480/KCRG-001.jpg,42.0021111,-91.6510391,640,480,3105
3106,Cedar Falls/UNI,http://mesonet.agron.iastate.edu/data/camera/640x480/KCRG-012.jpg,42.5237670666,-92.4391362904,640,480,3106
3107,Coralville,http://mesonet.agron.iastate.edu/data/camera/640x480/KCRG-018.jpg,41.6822756,-91.5960643,640,480,3107
3108,Decorah,http://mesonet.agron.iastate.edu/data/camera/640x480/KCRG-013.jpg,43.3033056,-91.7857092,640,480,3108
3109,Dubuque,http://mesonet.agron.iastate.edu/data/camera/640x480/KCRG-005.jpg,42.5005583,-90.6645718,640,480,3109
3110,Fayette,http://mesonet.agron.iastate.edu/data/camera/640x480/KCRG-016.jpg,42.8419255,-91.8021071,640,480,3110
3111,Huron,http://mesonet.agron.iastate.edu/data/camera/640x480/KELO-003.jpg,41.036702,-91.0340335,640,480,3111
3112,Independence,http://mesonet.agron.iastate.edu/data/camera/640x480/KCRG-007.jpg,42.4685978,-91.8893386,640,480,3112
3113,Iowa City,http://mesonet.agron.iastate.edu/data/camera/640x480/KCRG-006.jpg,41.6611277,-91.5301683,640,480,3113
3114,ISU Ag Farm,http://mesonet.agron.iastate.edu/data/camera/640x480/KCCI-027.jpg,0,0,640,480,3114
3115,ISU Ames,http://mesonet.agron.iastate.edu/data/camera/640x480/KCCI-016.jpg,42.0278131288,-93.6443330901,640,480,3115
3116,Lamoni,http://mesonet.agron.iastate.edu/data/camera/640x480/KCCI-028.jpg,40.622777,-93.9341158,640,480,3116
3117,Mitchell,http://mesonet.agron.iastate.edu/data/camera/640x480/KELO-002.jpg,43.3211111,-92.8702778,640,480,3117
3118,Monticello,http://mesonet.agron.iastate.edu/data/camera/640x480/KCRG-002.jpg,42.2383351,-91.1870937,640,480,3118
3120,Pella,http://mesonet.agron.iastate.edu/data/camera/640x480/KCCI-006.jpg,0,0,640,480,3120
3121,Rathbun Lake,http://mesonet.agron.iastate.edu/data/camera/640x480/KCCI-015.jpg,40.8644399,-92.9925577,640,480,3121
3122,Sigourney,http://mesonet.agron.iastate.edu/data/camera/640x480/KCRG-008.jpg,41.3333445,-92.2046255,640,480,3122
3123,Stuart,http://mesonet.agron.iastate.edu/data/camera/640x480/KCCI-033.jpg,0,0,640,480,3123
3124,Tipton,http://mesonet.agron.iastate.edu/data/camera/640x480/KCRG-010.jpg,41.7697434,-91.1279349,640,480,3124
